{"type":"FeatureCollection","features":[{"type":"Feature","geometry":{"crs":{"type":"name","properties":{"name":"EPSG:4326"}},"type":"Point","coordinates":[105.10388,12.73169]},"properties":{"id":"wVLM8Isn","name":"Santuk, Cambodia","type":"point","region":"Asia","comment":"Location: Santuk District, Kampong Thom Province. \nCoordinates:\nA:512216-1410027, A1:512214-1410909, B:518840-1410000, B1:518832-1410903,\nB2:517450-1410000, B3:516000-1407000, B4:518832-1407000, C:518812-1400344,\nD:502000-1400344, E:502000-1403183, F:510202-1403183, G:510202-1408305.\n\nShapefile source of contract area: https://opendevelopmentcambodia.net/dataset/?id=economiclandconcessions","country":"Cambodia","deal_id":20,"description":"","facility_name":"Rubber Tree Plantation Development Project in Kampong Thom Province, Cambodia","level_of_accuracy":"COORDINATES"}},{"type":"Feature","geometry":{"crs":{"type":"name","properties":{"name":"EPSG:4326"}},"type":"Point","coordinates":[104.29334,11.17647]},"properties":{"id":"8cmtvIy8","name":"Phnom Sruoch, Cambodia","type":"point","region":"Asia","comment":"","country":"Cambodia","deal_id":23,"description":"The concession is located in Trang Troyeung Commune, Phnom Srouch District, Kompong Speu Province, adjacent to a previously granted 3,000-hectare concession awarded to the same company.","facility_name":"","level_of_accuracy":"COORDINATES"}},{"type":"Feature","geometry":{"crs":{"type":"name","properties":{"name":"EPSG:4326"}},"type":"Point","coordinates":[104.72366,11.28629]},"properties":{"id":"qtfrpXjG","name":"Samrong, Cambodia","type":"point","region":"Asia","comment":"","country":"Cambodia","deal_id":39,"description":"","facility_name":"","level_of_accuracy":"ADMINISTRATIVE_REGION"}},{"type":"Feature","geometry":{"crs":{"type":"name","properties":{"name":"EPSG:4326"}},"type":"Point","coordinates":[104.23685,11.575272]},"properties":{"id":"ZXyv2N-T","name":"Phnom Sruoch, Samrong Oral Districts, Cambodia","type":"point","region":"Asia","comment":"Phnom Srouch, Samrong and Oral Districts, Kampong Speu Province\r\nCoordinates from deleted LO deal duplicate:\r\n11.575272107170838\r\n104.23685859627895","country":"Cambodia","deal_id":39,"description":"Land Concession Location","facility_name":"","level_of_accuracy":"ADMINISTRATIVE_REGION"}},{"type":"Feature","geometry":{"crs":{"type":"name","properties":{"name":"EPSG:4326"}},"type":"Point","coordinates":[103.5987,11.21677]},"properties":{"id":"5Txr2D_R","name":"Botum Sakor, Cambodia","type":"point","region":"Asia","comment":"Botomsakor District, Koh Kong Province","country":"Cambodia","deal_id":67,"description":"","facility_name":"","level_of_accuracy":"COORDINATES"}},{"type":"Feature","geometry":{"crs":{"type":"name","properties":{"name":"EPSG:4326"}},"type":"Point","coordinates":[104.071857,11.832847]},"properties":{"id":"gYj4I5m-","name":"Trappeang Chhour and Sangkae Satob Commune, Aoral District, Kampong Speu​, Cambodia","type":"point","region":"Asia","comment":"Oral district","country":"Cambodia","deal_id":100,"description":"","facility_name":"","level_of_accuracy":"COORDINATES"}},{"type":"Feature","geometry":{"crs":{"type":"name","properties":{"name":"EPSG:4326"}},"type":"Point","coordinates":[111.47529,-0.27878]},"properties":{"id":"jO8zBF_c","name":"West Kalimantan, Indonesia","type":"point","region":"Asia","comment":"Minamas estates in West Kalimantan: Awatan, Beturus, East, Kelampai, Lembiru, Pelanjau, Mas 1 – 3, Sei Mawang, Sungai Putih, West.","country":"Indonesia","deal_id":182,"description":"","facility_name":"","level_of_accuracy":"ADMINISTRATIVE_REGION"}},{"type":"Feature","geometry":{"crs":{"type":"name","properties":{"name":"EPSG:4326"}},"type":"Point","coordinates":[110.52155,0.14001]},"properties":{"id":"tlrzQQ7N","name":"Sanggau Regency, West Kalimantan, Indonesia","type":"point","region":"Asia","comment":"Kembayan, Sanggau, West Kalimantan and Kedukul, Sanggau, West Kalimantan.","country":"Indonesia","deal_id":191,"description":"","facility_name":"","level_of_accuracy":"ADMINISTRATIVE_REGION"}},{"type":"Feature","geometry":{"crs":{"type":"name","properties":{"name":"EPSG:4326"}},"type":"Point","coordinates":[131.5207,-1.0645]},"properties":{"id":"pvlOm5FM","name":"Sorong, Republik Indonesien","type":"point","region":"Asia","comment":"","country":"Indonesia","deal_id":195,"description":" ","facility_name":"","level_of_accuracy":"COORDINATES"}},{"type":"Feature","geometry":{"crs":{"type":"name","properties":{"name":"EPSG:4326"}},"type":"Point","coordinates":[76.85125,43.22201]},"properties":{"id":"oEIf7GHr","name":"Almaty, Kazakhstan","type":"point","region":"Eastern Europe","comment":"","country":"Kazakhstan","deal_id":206,"description":"","facility_name":"","level_of_accuracy":"ADMINISTRATIVE_REGION"}},{"type":"Feature","geometry":{"crs":{"type":"name","properties":{"name":"EPSG:4326"}},"type":"Point","coordinates":[105.3964,16.69314]},"properties":{"id":"iPqX-UNE","name":"Atsaphangthong, Laos","type":"point","region":"Asia","comment":"Location was found on google maps\n","country":"Lao PDR","deal_id":253,"description":"The crop is grown in the Donghen area of Atsaphangthong district.","facility_name":"","level_of_accuracy":"COORDINATES"}},{"type":"Feature","geometry":{"crs":{"type":"name","properties":{"name":"EPSG:4326"}},"type":"Point","coordinates":[105.59434,16.50654]},"properties":{"id":"S1EAVs0m","name":"Savannakhet, Laos","type":"point","region":"Asia","comment":"In three districts of Savannakhet province: Xayburi, Champhone and Outumphone districts\nSource: FAO","country":"Lao PDR","deal_id":268,"description":"","facility_name":"","level_of_accuracy":"ADMINISTRATIVE_REGION"}},{"type":"Feature","geometry":{"crs":{"type":"name","properties":{"name":"EPSG:4326"}},"type":"Point","coordinates":[106.2379,15.17964]},"properties":{"id":"s0x0zmXU","name":"Muang Pakxong, Paksong, Laos","type":"point","region":"Asia","comment":"","country":"Lao PDR","deal_id":274,"description":"","facility_name":"","level_of_accuracy":"ADMINISTRATIVE_REGION"}},{"type":"Feature","geometry":{"crs":{"type":"name","properties":{"name":"EPSG:4326"}},"type":"Point","coordinates":[116.79678,5.4204]},"properties":{"id":"SPxNAAMK","name":"Sabah, Malaysia","type":"point","region":"Asia","comment":"","country":"Malaysia","deal_id":308,"description":"","facility_name":"","level_of_accuracy":"ADMINISTRATIVE_REGION"}},{"type":"Feature","geometry":{"crs":{"type":"name","properties":{"name":"EPSG:4326"}},"type":"Point","coordinates":[124.99475,5.92672]},"properties":{"id":"lTcFqhIn","name":"Sarangani, Philippines","type":"point","region":"Asia","comment":"The initial plan targeted 10,000 ha in Davao del Norte, but the project’s pilot implementation took place on 85 ha in Barangay Domolok, Alabel (Sarangani’s capital). This is the joint venture entity established between the Philippines’ AMA Group and Bahrain’s Hassan/NEH Group","country":"Philippines","deal_id":404,"description":"Originally Davao del Norte province; later shifted to Alabel, Sarangani province (Mindanao)","facility_name":" RP Harvest, Inc. (also referred to as RP Bahrain Harvest, Inc.)","level_of_accuracy":"ADMINISTRATIVE_REGION"}},{"type":"Feature","geometry":{"crs":{"type":"name","properties":{"name":"EPSG:4326"}},"type":"Point","coordinates":[125.65328,7.56177]},"properties":{"id":"3j-cgCbM","name":"Davao del Norte, Philippines","type":"point","region":"Asia","comment":"This is the joint venture entity established between the Philippines’ AMA Group and Bahrain’s Hassan/NEH Group","country":"Philippines","deal_id":404,"description":"Originally Davao del Norte province; later shifted to Alabel, Sarangani province (Mindanao)","facility_name":"RP Harvest, Inc. (also referred to as RP Bahrain Harvest, Inc.)","level_of_accuracy":"ADMINISTRATIVE_REGION"}},{"type":"Feature","geometry":{"crs":{"type":"name","properties":{"name":"EPSG:4326"}},"type":"Point","coordinates":[125.07,6.23]},"properties":{"id":"nHZXwW9f","name":"Polomolok, South Cotabato, Philippines","type":"point","region":"Asia","comment":"The main hub is around Polomolok, South Cotabato (Dolefil’s cannery and estate), and new plantation areas extend to nearby municipalities such as T’boli, Lake Sebu, Surallah, Banga (South Cotabato) and Columbio (Sultan Kudarat). These locations include both lowland and upland terrain on the island of Mindanao","country":"Philippines","deal_id":470,"description":"The primary operations are located in the provinces of South Cotabato (specifically in the municipalities of Polomolok, T'boli, Tupi, Surallah, Lake Sebu, and Banga) and Sarangani, within the SOCCSKSARGEN region on the island of Mindanao, Philippines. The company has also been seeking expansion into North Cotabato, Sultan Kudarat, Davao del Sur, and Bukidnon","facility_name":"Dole Philippines, Inc. (Dolefil) Pineapple and Banana Plantations.","level_of_accuracy":"ADMINISTRATIVE_REGION"}},{"type":"Feature","geometry":{"crs":{"type":"name","properties":{"name":"EPSG:4326"}},"type":"Point","coordinates":[124.79617,6.38791]},"properties":{"id":"AMUI7Lw_","name":"Banga, South Cotabato, Philippines","type":"point","region":"Asia","comment":"The main hub is around Polomolok, South Cotabato (Dolefil’s cannery and estate), and new plantation areas extend to nearby municipalities such as T’boli, Lake Sebu, Surallah, Banga (South Cotabato) and Columbio (Sultan Kudarat). These locations include both lowland and upland terrain on the island of Mindanao","country":"Philippines","deal_id":470,"description":"The primary operations are located in the provinces of South Cotabato (specifically in the municipalities of Polomolok, T'boli, Tupi, Surallah, Lake Sebu, and Banga) and Sarangani, within the SOCCSKSARGEN region on the island of Mindanao, Philippines. The company has also been seeking expansion into North Cotabato, Sultan Kudarat, Davao del Sur, and Bukidnon.","facility_name":"Dole Philippines, Inc. (Dolefil) Pineapple and Banana Plantations","level_of_accuracy":"ADMINISTRATIVE_REGION"}},{"type":"Feature","geometry":{"crs":{"type":"name","properties":{"name":"EPSG:4326"}},"type":"Point","coordinates":[124.55284,6.24474]},"properties":{"id":"IeOBfSgR","name":"Lake Sebu, South Cotabato, Philippines","type":"point","region":"Asia","comment":"The main hub is around Polomolok, South Cotabato (Dolefil’s cannery and estate), and new plantation areas extend to nearby municipalities such as T’boli, Lake Sebu, Surallah, Banga (South Cotabato) and Columbio (Sultan Kudarat). These locations include both lowland and upland terrain on the island of Mindanao","country":"Philippines","deal_id":470,"description":"The primary operations are located in the provinces of South Cotabato (specifically in the municipalities of Polomolok, T'boli, Tupi, Surallah, Lake Sebu, and Banga) and Sarangani, within the SOCCSKSARGEN region on the island of Mindanao, Philippines. The company has also been seeking expansion into North Cotabato, Sultan Kudarat, Davao del Sur, and Bukidnon.","facility_name":"Dole Philippines, Inc. (Dolefil) Pineapple and Banana Plantations","level_of_accuracy":"ADMINISTRATIVE_REGION"}},{"type":"Feature","geometry":{"crs":{"type":"name","properties":{"name":"EPSG:4326"}},"type":"Point","coordinates":[124.99475,5.92672]},"properties":{"id":"bPjGkBgb","name":"Sarangani, Philippines","type":"point","region":"Asia","comment":"The main hub is around Polomolok, South Cotabato (Dolefil’s cannery and estate), and new plantation areas extend to nearby municipalities such as T’boli, Lake Sebu, Surallah, Banga (South Cotabato) and Columbio (Sultan Kudarat). These locations include both lowland and upland terrain on the island of Mindanao","country":"Philippines","deal_id":470,"description":"The primary operations are located in the provinces of South Cotabato (specifically in the municipalities of Polomolok, T'boli, Tupi, Surallah, Lake Sebu, and Banga) and Sarangani, within the SOCCSKSARGEN region on the island of Mindanao, Philippines. The company has also been seeking expansion into North Cotabato, Sultan Kudarat, Davao del Sur, and Bukidnon.","facility_name":"Dole Philippines, Inc. (Dolefil) Pineapple and Banana Plantations","level_of_accuracy":"ADMINISTRATIVE_REGION"}},{"type":"Feature","geometry":{"crs":{"type":"name","properties":{"name":"EPSG:4326"}},"type":"Point","coordinates":[125.03882,7.10833]},"properties":{"id":"10vsl7AQ","name":"North Cotabato, Philippines","type":"point","region":"Asia","comment":"The main hub is around Polomolok, South Cotabato (Dolefil’s cannery and estate), and new plantation areas extend to nearby municipalities such as T’boli, Lake Sebu, Surallah, Banga (South Cotabato) and Columbio (Sultan Kudarat). These locations include both lowland and upland terrain on the island of Mindanao","country":"Philippines","deal_id":470,"description":"The primary operations are located in the provinces of South Cotabato (specifically in the municipalities of Polomolok, T'boli, Tupi, Surallah, Lake Sebu, and Banga) and Sarangani, within the SOCCSKSARGEN region on the island of Mindanao, Philippines. The company has also been seeking expansion into North Cotabato, Sultan Kudarat, Davao del Sur, and Bukidnon.","facility_name":"Dole Philippines, Inc. (Dolefil) Pineapple and Banana Plantations","level_of_accuracy":"ADMINISTRATIVE_REGION"}},{"type":"Feature","geometry":{"crs":{"type":"name","properties":{"name":"EPSG:4326"}},"type":"Point","coordinates":[124.41982,6.50694]},"properties":{"id":"JgAhmC9T","name":"Sultan Kudarat, Philippines","type":"point","region":"Asia","comment":"The main hub is around Polomolok, South Cotabato (Dolefil’s cannery and estate), and new plantation areas extend to nearby municipalities such as T’boli, Lake Sebu, Surallah, Banga (South Cotabato) and Columbio (Sultan Kudarat). These locations include both lowland and upland terrain on the island of Mindanao","country":"Philippines","deal_id":470,"description":"The primary operations are located in the provinces of South Cotabato (specifically in the municipalities of Polomolok, T'boli, Tupi, Surallah, Lake Sebu, and Banga) and Sarangani, within the SOCCSKSARGEN region on the island of Mindanao, Philippines. The company has also been seeking expansion into North Cotabato, Sultan Kudarat, Davao del Sur, and Bukidnon.","facility_name":"Dole Philippines, Inc. (Dolefil) Pineapple and Banana Plantations","level_of_accuracy":"ADMINISTRATIVE_REGION"}},{"type":"Feature","geometry":{"crs":{"type":"name","properties":{"name":"EPSG:4326"}},"type":"Point","coordinates":[124.75198,6.3195]},"properties":{"id":"SMpcaFx5","name":"Surallah, South Cotabato, Philippines","type":"point","region":"Asia","comment":"The main hub is around Polomolok, South Cotabato (Dolefil’s cannery and estate), and new plantation areas extend to nearby municipalities such as T’boli, Lake Sebu, Surallah, Banga (South Cotabato) and Columbio (Sultan Kudarat). These locations include both lowland and upland terrain on the island of Mindanao","country":"Philippines","deal_id":470,"description":"The primary operations are located in the provinces of South Cotabato (specifically in the municipalities of Polomolok, T'boli, Tupi, Surallah, Lake Sebu, and Banga) and Sarangani, within the SOCCSKSARGEN region on the island of Mindanao, Philippines. The company has also been seeking expansion into North Cotabato, Sultan Kudarat, Davao del Sur, and Bukidnon","facility_name":"Dole Philippines, Inc. (Dolefil) Pineapple and Banana Plantations","level_of_accuracy":"ADMINISTRATIVE_REGION"}},{"type":"Feature","geometry":{"crs":{"type":"name","properties":{"name":"EPSG:4326"}},"type":"Point","coordinates":[124.97271,6.33849]},"properties":{"id":"ZDeSAEDd","name":"Tupi, South Cotabato, Philippines","type":"point","region":"Asia","comment":"The main hub is around Polomolok, South Cotabato (Dolefil’s cannery and estate), and new plantation areas extend to nearby municipalities such as T’boli, Lake Sebu, Surallah, Banga (South Cotabato) and Columbio (Sultan Kudarat). These locations include both lowland and upland terrain on the island of Mindanao","country":"Philippines","deal_id":470,"description":"The primary operations are located in the provinces of South Cotabato (specifically in the municipalities of Polomolok, T'boli, Tupi, Surallah, Lake Sebu, and Banga) and Sarangani, within the SOCCSKSARGEN region on the island of Mindanao, Philippines. The company has also been seeking expansion into North Cotabato, Sultan Kudarat, Davao del Sur, and Bukidnon","facility_name":"Dole Philippines, Inc. (Dolefil) Pineapple and Banana Plantations","level_of_accuracy":"ADMINISTRATIVE_REGION"}},{"type":"Feature","geometry":{"crs":{"type":"name","properties":{"name":"EPSG:4326"}},"type":"Point","coordinates":[125.32843,6.76627]},"properties":{"id":"aEm7fxrE","name":"Davao del Sur, Philippines","type":"point","region":"Asia","comment":"The main hub is around Polomolok, South Cotabato (Dolefil’s cannery and estate), and new plantation areas extend to nearby municipalities such as T’boli, Lake Sebu, Surallah, Banga (South Cotabato) and Columbio (Sultan Kudarat). These locations include both lowland and upland terrain on the island of Mindanao","country":"Philippines","deal_id":470,"description":"The primary operations are located in the provinces of South Cotabato (specifically in the municipalities of Polomolok, T'boli, Tupi, Surallah, Lake Sebu, and Banga) and Sarangani, within the SOCCSKSARGEN region on the island of Mindanao, Philippines. The company has also been seeking expansion into North Cotabato, Sultan Kudarat, Davao del Sur, and Bukidnon.\n\n\n\n\n","facility_name":"Dole Philippines, Inc. (Dolefil) Pineapple and Banana Plantations","level_of_accuracy":"ADMINISTRATIVE_REGION"}},{"type":"Feature","geometry":{"crs":{"type":"name","properties":{"name":"EPSG:4326"}},"type":"Point","coordinates":[124.90655,6.14683]},"properties":{"id":"-i5SDkNm","name":"T'boli, South Cotabato, Philippines","type":"point","region":"Asia","comment":"The main hub is around Polomolok, South Cotabato (Dolefil’s cannery and estate), and new plantation areas extend to nearby municipalities such as T’boli, Lake Sebu, Surallah, Banga (South Cotabato) and Columbio (Sultan Kudarat). These locations include both lowland and upland terrain on the island of Mindanao","country":"Philippines","deal_id":470,"description":"The primary operations are located in the provinces of South Cotabato (specifically in the municipalities of Polomolok, T'boli, Tupi, Surallah, Lake Sebu, and Banga) and Sarangani, within the SOCCSKSARGEN region on the island of Mindanao, Philippines. The company has also been seeking expansion into North Cotabato, Sultan Kudarat, Davao del Sur, and Bukidnon.","facility_name":"Dole Philippines, Inc. (Dolefil) Pineapple and Banana Plantations","level_of_accuracy":"ADMINISTRATIVE_REGION"}},{"type":"Feature","geometry":{"crs":{"type":"name","properties":{"name":"EPSG:4326"}},"type":"Point","coordinates":[124.92299,8.05151]},"properties":{"id":"_xgGoMJ7","name":"Bukidnon, Philippines","type":"point","region":"Asia","comment":"The main hub is around Polomolok, South Cotabato (Dolefil’s cannery and estate), and new plantation areas extend to nearby municipalities such as T’boli, Lake Sebu, Surallah, Banga (South Cotabato) and Columbio (Sultan Kudarat). These locations include both lowland and upland terrain on the island of Mindanao","country":"Philippines","deal_id":470,"description":"Southern Mindanao, Philippines – primarily in Region XII (SOCCSKSARGEN), covering provinces of South Cotabato and Sarangani (where Dolefil’s base plantations are), with expansion sites identified in Sultan Kudarat, North Cotabato, Davao del Sur, and Bukidnon","facility_name":"Dole Philippines, Inc. (Dolefil) Pineapple and Banana Plantations.","level_of_accuracy":"ADMINISTRATIVE_REGION"}},{"type":"Feature","geometry":{"crs":{"type":"name","properties":{"name":"EPSG:4326"}},"type":"Point","coordinates":[-59.84107,-37.20173]},"properties":{"id":"UuEBndEN","name":"Buenos Aires Province, Argentina","type":"point","region":"Latin America and the Caribbean","comment":"","country":"Argentina","deal_id":724,"description":"","facility_name":"","level_of_accuracy":"ADMINISTRATIVE_REGION"}},{"type":"Feature","geometry":{"crs":{"type":"name","properties":{"name":"EPSG:4326"}},"type":"Point","coordinates":[-69.57975,-35.48446]},"properties":{"id":"m3B1vgMY","name":"Malargüe, Mendoza Province, Argentina","type":"point","region":"Latin America and the Caribbean","comment":"Los establecimientos de la empresa en Mendoza son Campo el Álamo, Las Juntas, Los Molles, Las Leñas, Valle Hermoso, Los Amarillos, Agua del Toro, Río Colorado (sur de Mendoza). En estas propiedades están la laguna Niña Encantada, el Pozo de las Ánimas, el centro termal Los Molles, el Centro de Ski las Leñas, la Laguna de Valle Hermoso y otros espejos de agua cordilleranos.","country":"Argentina","deal_id":727,"description":"","facility_name":"","level_of_accuracy":"COORDINATES"}},{"type":"Feature","geometry":{"crs":{"type":"name","properties":{"name":"EPSG:4326"}},"type":"Point","coordinates":[-69.93887,-35.16562]},"properties":{"id":"XBYgadvF","name":"Los Molles, Mendoza, Argentina","type":"point","region":"Latin America and the Caribbean","comment":"Es uno de los campos de la empresa, tiene 150000 hectáreas. parte de estas hectáreas se encuentran arrendadas a pequeños productores","country":"Argentina","deal_id":727,"description":"","facility_name":"El Álamo","level_of_accuracy":"COORDINATES"}},{"type":"Feature","geometry":{"crs":{"type":"name","properties":{"name":"EPSG:4326"}},"type":"Point","coordinates":[-65.10498,-37.83148]},"properties":{"id":"naHFfLmu","name":"La Pampa Province, Argentina","type":"point","region":"Latin America and the Caribbean","comment":"Coordinates: -37.83148014503287, -65.10498046875","country":"Argentina","deal_id":729,"description":"","facility_name":"","level_of_accuracy":"COORDINATES"}},{"type":"Feature","geometry":{"crs":{"type":"name","properties":{"name":"EPSG:4326"}},"type":"Point","coordinates":[-63.583285,-16.342274]},"properties":{"id":"opX7pVPo","name":"Gobierno Autonomo Municipal de San Pedro, Santisteban, San Pedro, Bolivia","type":"point","region":"Latin America and the Caribbean","comment":"","country":"Bolivia","deal_id":738,"description":"","facility_name":"","level_of_accuracy":"COORDINATES"}},{"type":"Feature","geometry":{"crs":{"type":"name","properties":{"name":"EPSG:4326"}},"type":"Point","coordinates":[-63.22384,-17.00712]},"properties":{"id":"3MDktnmH","name":"Chané, Bolivia","type":"point","region":"Latin America and the Caribbean","comment":"","country":"Bolivia","deal_id":739,"description":"","facility_name":"","level_of_accuracy":"ADMINISTRATIVE_REGION"}},{"type":"Feature","geometry":{"crs":{"type":"name","properties":{"name":"EPSG:4326"}},"type":"Point","coordinates":[-63.1817,-17.74708]},"properties":{"id":"in-dMpmM","name":"San Pedro, Santa Cruz de la Sierra, Bolivia","type":"point","region":"Latin America and the Caribbean","comment":"San Pedro, north of Santa Cruz\r\nCoordinates: -14.867150772062557, -61.51622772216797","country":"Bolivia","deal_id":744,"description":"","facility_name":"","level_of_accuracy":"ADMINISTRATIVE_REGION"}},{"type":"Feature","geometry":{"crs":{"type":"name","properties":{"name":"EPSG:4326"}},"type":"Point","coordinates":[-54.20181,-23.06215]},"properties":{"id":"ZJYW1pg9","name":"Naviraí, Mato Grosso del Sur, Brasil","type":"point","region":"Latin America and the Caribbean","comment":"","country":"Brazil","deal_id":747,"description":"","facility_name":"","level_of_accuracy":"ADMINISTRATIVE_REGION"}},{"type":"Feature","geometry":{"crs":{"type":"name","properties":{"name":"EPSG:4326"}},"type":"Point","coordinates":[-52.02154,-25.25209]},"properties":{"id":"7g6EEf81","name":"Estado de Paraná, Brasil","type":"point","region":"Latin America and the Caribbean","comment":"Parana and Sao Paulo.","country":"Brazil","deal_id":774,"description":"","facility_name":"","level_of_accuracy":"ADMINISTRATIVE_REGION"}},{"type":"Feature","geometry":{"crs":{"type":"name","properties":{"name":"EPSG:4326"}},"type":"Point","coordinates":[-45.31959,-8.19683]},"properties":{"id":"Q11q5tsM","name":"Baixa Grande do Ribeiro, Piauí, Brasil","type":"point","region":"Latin America and the Caribbean","comment":"","country":"Brazil","deal_id":775,"description":"","facility_name":"Fazenda Cremaq","level_of_accuracy":"COORDINATES"}},{"type":"Feature","geometry":{"crs":{"type":"name","properties":{"name":"EPSG:4326"}},"type":"Point","coordinates":[-53.89542,-22.3822]},"properties":{"id":"NjQX963-","name":"Ivinhema - Mato Grosso do Sul, Brazil","type":"point","region":"Latin America and the Caribbean","comment":"Usina Ivinhema -22.382201, -53.895418\nUsina Angelica -22.039654318209784, -53.84371344205901","country":"Brazil","deal_id":779,"description":"","facility_name":"","level_of_accuracy":"COORDINATES"}},{"type":"Feature","geometry":{"crs":{"type":"name","properties":{"name":"EPSG:4326"}},"type":"Point","coordinates":[-71.19699,-30.6043]},"properties":{"id":"JDOiOMKU","name":"Ovalle, Ovalle, Coquimbo Region, Chile","type":"point","region":"Latin America and the Caribbean","comment":"","country":"Chile","deal_id":794,"description":"","facility_name":"","level_of_accuracy":"ADMINISTRATIVE_REGION"}},{"type":"Feature","geometry":{"crs":{"type":"name","properties":{"name":"EPSG:4326"}},"type":"Point","coordinates":[-71.5724,-35.51636]},"properties":{"id":"iz7X_Vz8","name":"Maule Region, Chile","type":"point","region":"Latin America and the Caribbean","comment":"","country":"Chile","deal_id":795,"description":"","facility_name":"","level_of_accuracy":"ADMINISTRATIVE_REGION"}},{"type":"Feature","geometry":{"crs":{"type":"name","properties":{"name":"EPSG:4326"}},"type":"Point","coordinates":[-90.36154,16.22284]},"properties":{"id":"_kuMi746","name":"Sayaxché, Guatemala","type":"point","region":"Latin America and the Caribbean","comment":"Tierra Blanca","country":"Guatemala","deal_id":840,"description":"","facility_name":"","level_of_accuracy":"COORDINATES"}},{"type":"Feature","geometry":{"crs":{"type":"name","properties":{"name":"EPSG:4326"}},"type":"Point","coordinates":[-90.46837,15.99394]},"properties":{"id":"x2wRwEJc","name":"Ixcán, Guatemala","type":"point","region":"Latin America and the Caribbean","comment":"","country":"Guatemala","deal_id":840,"description":"","facility_name":"","level_of_accuracy":"COORDINATES"}},{"type":"Feature","geometry":{"crs":{"type":"name","properties":{"name":"EPSG:4326"}},"type":"Point","coordinates":[-89.69258,15.36066]},"properties":{"id":"p7fbUZKC","name":"Alta Verapaz Department, Guatemala","type":"point","region":"Latin America and the Caribbean","comment":"Valle Polochic: Panzos, Alta Verapaz, El Estor, Mariscos","country":"Guatemala","deal_id":843,"description":"","facility_name":"","level_of_accuracy":"COORDINATES"}},{"type":"Feature","geometry":{"crs":{"type":"name","properties":{"name":"EPSG:4326"}},"type":"Point","coordinates":[-88.59405,15.58221]},"properties":{"id":"Z8bZHcsz","name":"Morales, Guatemala","type":"point","region":"Latin America and the Caribbean","comment":" (Izabal), Puerto Barrios y Morales \r\nCoordinates: 15.4204597488621, -88.7514801134764","country":"Guatemala","deal_id":844,"description":"This is the location of one of the company's farm, Finca Dublin.","facility_name":"","level_of_accuracy":"COORDINATES"}},{"type":"Feature","geometry":{"crs":{"type":"name","properties":{"name":"EPSG:4326"}},"type":"Point","coordinates":[-60.954,-21.74491]},"properties":{"id":"WEFth2gB","name":"Boquerón, Paraguay","type":"point","region":"Latin America and the Caribbean","comment":"Located in Mariscal José Felix Estigarribia, District of Boquerón, Chaco Paraguayo, Republic of Paraguay.","country":"Paraguay","deal_id":869,"description":"","facility_name":"Estancia Jerovia- Cresca S.A.","level_of_accuracy":"COORDINATES"}},{"type":"Feature","geometry":{"crs":{"type":"name","properties":{"name":"EPSG:4326"}},"type":"Point","coordinates":[-56.3,-26.04361]},"properties":{"id":"Lk7YE_YP","name":"Caazapa, Paraguay","type":"point","region":"Latin America and the Caribbean","comment":"26°2\"37' S\n56°18\"0' W","country":"Paraguay","deal_id":877,"description":"","facility_name":"La Milagrosa Farm","level_of_accuracy":"COORDINATES"}},{"type":"Feature","geometry":{"crs":{"type":"name","properties":{"name":"EPSG:4326"}},"type":"Point","coordinates":[-56.025,-33.07845]},"properties":{"id":"eagaTjdc","name":"Durazno, Uruguay","type":"point","region":"Latin America and the Caribbean","comment":"","country":"Uruguay","deal_id":933,"description":"","facility_name":"","level_of_accuracy":"ADMINISTRATIVE_REGION"}},{"type":"Feature","geometry":{"crs":{"type":"name","properties":{"name":"EPSG:4326"}},"type":"Point","coordinates":[-54.25931,-32.20248]},"properties":{"id":"NR5FoaVv","name":"Cerro Largo, Uruguay","type":"point","region":"Latin America and the Caribbean","comment":"","country":"Uruguay","deal_id":934,"description":"","facility_name":"","level_of_accuracy":"ADMINISTRATIVE_REGION"}},{"type":"Feature","geometry":{"crs":{"type":"name","properties":{"name":"EPSG:4326"}},"type":"Point","coordinates":[-56.08536,-33.06031]},"properties":{"id":"N1lEjcRI","name":"Durazno, Uruguay","type":"point","region":"Latin America and the Caribbean","comment":"","country":"Uruguay","deal_id":937,"description":"","facility_name":"Estancia La pecuaria","level_of_accuracy":"COORDINATES"}},{"type":"Feature","geometry":{"crs":{"type":"name","properties":{"name":"EPSG:4326"}},"type":"Point","coordinates":[24.3568,54.16206]},"properties":{"id":"9DGF9vw-","name":"Paūliai, Lithuania","type":"point","region":"Eastern Europe","comment":"","country":"Lithuania","deal_id":962,"description":"","facility_name":"","level_of_accuracy":"ADMINISTRATIVE_REGION"}},{"type":"Feature","geometry":{"crs":{"type":"name","properties":{"name":"EPSG:4326"}},"type":"Point","coordinates":[23.11561,55.38195]},"properties":{"id":"i47mvA83","name":"Raseiniai, Lithuania","type":"point","region":"Eastern Europe","comment":"","country":"Lithuania","deal_id":962,"description":"","facility_name":"","level_of_accuracy":"ADMINISTRATIVE_REGION"}},{"type":"Feature","geometry":{"crs":{"type":"name","properties":{"name":"EPSG:4326"}},"type":"Point","coordinates":[22.34147,56.30924]},"properties":{"id":"Eq68VVOr","name":"Mažeikiai, Lithuania","type":"point","region":"Eastern Europe","comment":"","country":"Lithuania","deal_id":962,"description":"","facility_name":"","level_of_accuracy":"ADMINISTRATIVE_REGION"}},{"type":"Feature","geometry":{"crs":{"type":"name","properties":{"name":"EPSG:4326"}},"type":"Point","coordinates":[21.50384,45.40727]},"properties":{"id":"WQ1LiJYd","name":"Măureni 327265, Romania","type":"point","region":"Eastern Europe","comment":"","country":"Romania","deal_id":981,"description":"","facility_name":"Tormac","level_of_accuracy":"EXACT_LOCATION"}},{"type":"Feature","geometry":{"crs":{"type":"name","properties":{"name":"EPSG:4326"}},"type":"Point","coordinates":[21.49209,45.52294]},"properties":{"id":"9FMt3dlA","name":"Tormac, Romania","type":"point","region":"Eastern Europe","comment":"2km from the village Sipet","country":"Romania","deal_id":981,"description":"","facility_name":"","level_of_accuracy":"ADMINISTRATIVE_REGION"}},{"type":"Feature","geometry":{"crs":{"type":"name","properties":{"name":"EPSG:4326"}},"type":"Point","coordinates":[40.78809,52.08984]},"properties":{"id":"if23Vax0","name":"Мордово, Тамбовская обл., Росія","type":"point","region":"Eastern Europe","comment":"In the Mordovian region, the company has 15100 ha of arable land","country":"Russian Federation","deal_id":1003,"description":"","facility_name":"","level_of_accuracy":"ADMINISTRATIVE_REGION"}},{"type":"Feature","geometry":{"crs":{"type":"name","properties":{"name":"EPSG:4326"}},"type":"Point","coordinates":[40.30944,52.59123]},"properties":{"id":"AWJrHYva","name":"Петровский р-н, Тамбовская обл., Росія","type":"point","region":"Eastern Europe","comment":"In the Petrovsky region, the company has 5000 ha of arable land","country":"Russian Federation","deal_id":1003,"description":"","facility_name":"","level_of_accuracy":"ADMINISTRATIVE_REGION"}},{"type":"Feature","geometry":{"crs":{"type":"name","properties":{"name":"EPSG:4326"}},"type":"Point","coordinates":[41.33012,52.42238]},"properties":{"id":"uGCRVupp","name":"Знаменский р-н, Тамбовская обл., Росія","type":"point","region":"Eastern Europe","comment":"in the Znamensky region, the company has 300 ha of arable land","country":"Russian Federation","deal_id":1003,"description":"","facility_name":"","level_of_accuracy":"ADMINISTRATIVE_REGION"}},{"type":"Feature","geometry":{"crs":{"type":"name","properties":{"name":"EPSG:4326"}},"type":"Point","coordinates":[40.79289,52.13081]},"properties":{"id":"RRpObFNn","name":"Мордовский район, Tambov Oblast, Russia","type":"point","region":"Eastern Europe","comment":"","country":"Russian Federation","deal_id":1004,"description":"","facility_name":"","level_of_accuracy":"ADMINISTRATIVE_REGION"}},{"type":"Feature","geometry":{"crs":{"type":"name","properties":{"name":"EPSG:4326"}},"type":"Point","coordinates":[40.30944,52.59123]},"properties":{"id":"qjL4pODh","name":"Петровский р-н, Тамбовская обл., Росія","type":"point","region":"Eastern Europe","comment":"","country":"Russian Federation","deal_id":1004,"description":"","facility_name":"","level_of_accuracy":"ADMINISTRATIVE_REGION"}},{"type":"Feature","geometry":{"crs":{"type":"name","properties":{"name":"EPSG:4326"}},"type":"Point","coordinates":[41.29577,52.73359]},"properties":{"id":"ymnXogYb","name":"Tambov, Tambov Oblast, Russia","type":"point","region":"Eastern Europe","comment":"Tambov","country":"Russian Federation","deal_id":1004,"description":"","facility_name":"","level_of_accuracy":"ADMINISTRATIVE_REGION"}},{"type":"Feature","geometry":{"crs":{"type":"name","properties":{"name":"EPSG:4326"}},"type":"Point","coordinates":[41.33012,52.42238]},"properties":{"id":"cGlZogwV","name":"Знаменский район, Tambov Oblast, Russia","type":"point","region":"Eastern Europe","comment":"","country":"Russian Federation","deal_id":1004,"description":"","facility_name":"","level_of_accuracy":"ADMINISTRATIVE_REGION"}},{"type":"Feature","geometry":{"crs":{"type":"name","properties":{"name":"EPSG:4326"}},"type":"Point","coordinates":[35.34351,51.92143]},"properties":{"id":"qoILrjmw","name":"Конишевський район, Курська область, Росія","type":"point","region":"Eastern Europe","comment":"Kursk","country":"Russian Federation","deal_id":1005,"description":"","facility_name":"","level_of_accuracy":"ADMINISTRATIVE_REGION"}},{"type":"Feature","geometry":{"crs":{"type":"name","properties":{"name":"EPSG:4326"}},"type":"Point","coordinates":[34.95807,52.14984]},"properties":{"id":"XkdkrOCd","name":"Дмитрієвський район, Курська область, Росія","type":"point","region":"Eastern Europe","comment":"The operating company controls approximately 640 ha of land in this region","country":"Russian Federation","deal_id":1005,"description":"","facility_name":"","level_of_accuracy":"ADMINISTRATIVE_REGION"}},{"type":"Feature","geometry":{"crs":{"type":"name","properties":{"name":"EPSG:4326"}},"type":"Point","coordinates":[34.70519,51.84925]},"properties":{"id":"_drMsE-A","name":"Хомутовський район, Курська область, Росія","type":"point","region":"Eastern Europe","comment":"","country":"Russian Federation","deal_id":1005,"description":"","facility_name":"","level_of_accuracy":"ADMINISTRATIVE_REGION"}},{"type":"Feature","geometry":{"crs":{"type":"name","properties":{"name":"EPSG:4326"}},"type":"Point","coordinates":[65.33333,55.45]},"properties":{"id":"qmdwP1ca","name":"Kurgan, Kurgan Oblast, Russia","type":"point","region":"Eastern Europe","comment":"Kurgan","country":"Russian Federation","deal_id":1006,"description":"","facility_name":"","level_of_accuracy":"ADMINISTRATIVE_REGION"}},{"type":"Feature","geometry":{"crs":{"type":"name","properties":{"name":"EPSG:4326"}},"type":"Point","coordinates":[36.15622,51.7092]},"properties":{"id":"5MU5qBW9","name":"Kursk, Kursk Oblast, Russia","type":"point","region":"Eastern Europe","comment":"","country":"Russian Federation","deal_id":1011,"description":"","facility_name":"","level_of_accuracy":"ADMINISTRATIVE_REGION"}},{"type":"Feature","geometry":{"crs":{"type":"name","properties":{"name":"EPSG:4326"}},"type":"Point","coordinates":[39.20888,51.6755]},"properties":{"id":"qkZG7DUx","name":"Voronezh, Voronezh Oblast, Russia","type":"point","region":"Eastern Europe","comment":"","country":"Russian Federation","deal_id":1011,"description":"","facility_name":"","level_of_accuracy":"ADMINISTRATIVE_REGION"}},{"type":"Feature","geometry":{"crs":{"type":"name","properties":{"name":"EPSG:4326"}},"type":"Point","coordinates":[36.06249,52.96685]},"properties":{"id":"Zw3l845i","name":"Oryol, Oryol Oblast, Russia","type":"point","region":"Eastern Europe","comment":"","country":"Russian Federation","deal_id":1011,"description":"","facility_name":"","level_of_accuracy":"ADMINISTRATIVE_REGION"}},{"type":"Feature","geometry":{"crs":{"type":"name","properties":{"name":"EPSG:4326"}},"type":"Point","coordinates":[39.7,47.21667]},"properties":{"id":"c0XbfAR5","name":"Rostov-on-Don, Rostov Oblast, Russia","type":"point","region":"Eastern Europe","comment":"","country":"Russian Federation","deal_id":1011,"description":"","facility_name":"","level_of_accuracy":"ADMINISTRATIVE_REGION"}},{"type":"Feature","geometry":{"crs":{"type":"name","properties":{"name":"EPSG:4326"}},"type":"Point","coordinates":[45.01667,53.2]},"properties":{"id":"Q_rRwa8Q","name":"Penza, Penza Oblast, Russia","type":"point","region":"Eastern Europe","comment":"","country":"Russian Federation","deal_id":1011,"description":"","facility_name":"","level_of_accuracy":"ADMINISTRATIVE_REGION"}},{"type":"Feature","geometry":{"crs":{"type":"name","properties":{"name":"EPSG:4326"}},"type":"Point","coordinates":[39.30292,50.27692]},"properties":{"id":"xVT3CvKn","name":"Ольховатка, Воронезька область, Росія","type":"point","region":"Eastern Europe","comment":"","country":"Russian Federation","deal_id":1011,"description":"","facility_name":"","level_of_accuracy":"APPROXIMATE_LOCATION"}},{"type":"Feature","geometry":{"crs":{"type":"name","properties":{"name":"EPSG:4326"}},"type":"Point","coordinates":[39.73601,50.13009]},"properties":{"id":"U6rgsphC","name":"Россошанский район, Воронезька область, Росія","type":"point","region":"Eastern Europe","comment":"","country":"Russian Federation","deal_id":1011,"description":"","facility_name":"","level_of_accuracy":"APPROXIMATE_LOCATION"}},{"type":"Feature","geometry":{"crs":{"type":"name","properties":{"name":"EPSG:4326"}},"type":"Point","coordinates":[132.19078,44.49326]},"properties":{"id":"Nb3M9J66","name":"Новодевица, Приморский край, Росія, 692275","type":"point","region":"Eastern Europe","comment":"near vladivostok","country":"Russian Federation","deal_id":1014,"description":"","facility_name":"","level_of_accuracy":"APPROXIMATE_LOCATION"}},{"type":"Feature","geometry":{"crs":{"type":"name","properties":{"name":"EPSG:4326"}},"type":"Point","coordinates":[54.52375,54.64203]},"properties":{"id":"KxoMdyz-","name":"Буздяцький район, Башкортостан, Росія","type":"point","region":"Eastern Europe","comment":"","country":"Russian Federation","deal_id":1017,"description":"For 2018: 21 969 ha in Buzdyaksky district","facility_name":"","level_of_accuracy":"ADMINISTRATIVE_REGION"}},{"type":"Feature","geometry":{"crs":{"type":"name","properties":{"name":"EPSG:4326"}},"type":"Point","coordinates":[55.39016,54.59494]},"properties":{"id":"qEzKGFhg","name":"Чишминський район, Башкортостан, Росія","type":"point","region":"Eastern Europe","comment":"","country":"Russian Federation","deal_id":1017,"description":"For 2018: 25 383 ha in the Chishminsky distric","facility_name":"","level_of_accuracy":"ADMINISTRATIVE_REGION"}},{"type":"Feature","geometry":{"crs":{"type":"name","properties":{"name":"EPSG:4326"}},"type":"Point","coordinates":[55.01575,54.6909]},"properties":{"id":"3iBSG1ki","name":"Благоварський район, Башкортостан, Росія","type":"point","region":"Eastern Europe","comment":"","country":"Russian Federation","deal_id":1017,"description":"For 2018: 49 262 ha in Blagovarsky district","facility_name":"","level_of_accuracy":"ADMINISTRATIVE_REGION"}},{"type":"Feature","geometry":{"crs":{"type":"name","properties":{"name":"EPSG:4326"}},"type":"Point","coordinates":[160.127,-9.4574]},"properties":{"id":"J441ihlg","name":"Okea, Nguvia, Solomon Islands","type":"point","region":"Asia","comment":"Georeferenced Map 1 in Data Source 13 to extract the contract area, with the boundaries refined using the location map provided in Figure 3 of Data Source 12.","country":"Solomon Islands","deal_id":1019,"description":"","facility_name":"Okea Division","level_of_accuracy":"COORDINATES"}},{"type":"Feature","geometry":{"crs":{"type":"name","properties":{"name":"EPSG:4326"}},"type":"Point","coordinates":[160.21223,-9.46821]},"properties":{"id":"o0KtdYUZ","name":"Tetere, Solomon Islands","type":"point","region":"Asia","comment":"Georeferenced Map 1 in Data Source 13 to extract the contract area, with the boundaries refined using the location map provided in Figure 3 of Data Source 12, which also displays smaller blocks of lots allocated for the outgrowing of palm.","country":"Solomon Islands","deal_id":1019,"description":"","facility_name":"Binu Outgrower","level_of_accuracy":"COORDINATES"}},{"type":"Feature","geometry":{"crs":{"type":"name","properties":{"name":"EPSG:4326"}},"type":"Point","coordinates":[160.1952,-9.4905]},"properties":{"id":"eFOByCkc","name":"Tetere, Solomon Islands","type":"point","region":"Asia","comment":"Georeferenced Map 1 in Data Source 13 to extract the contract area, with the boundaries refined using the location map provided in Figure 3 of Data Source 12.","country":"Solomon Islands","deal_id":1019,"description":"","facility_name":"Tetere Division 2","level_of_accuracy":"COORDINATES"}},{"type":"Feature","geometry":{"crs":{"type":"name","properties":{"name":"EPSG:4326"}},"type":"Point","coordinates":[160.1588,-9.4722]},"properties":{"id":"3MxcIUUp","name":"Ngalimbiu River, Solomon Islands","type":"point","region":"Asia","comment":"Georeferenced Map 1 in Data Source 13 to extract the contract area, with the boundaries refined using the location map provided in Figure 3 of Data Source 12.","country":"Solomon Islands","deal_id":1019,"description":"","facility_name":"Ngalimbiu Division","level_of_accuracy":"COORDINATES"}},{"type":"Feature","geometry":{"crs":{"type":"name","properties":{"name":"EPSG:4326"}},"type":"Point","coordinates":[160.25577,-9.47747]},"properties":{"id":"N7umvZy9","name":"Mbalisuna Plantation, Karoururu, Solomon Islands","type":"point","region":"Asia","comment":"Georeferenced Map 1 in Data Source 13 to extract the contract area, with the boundaries refined using the location map provided in Figure 3 of Data Source 12.","country":"Solomon Islands","deal_id":1019,"description":"","facility_name":"Mbalisuna Division","level_of_accuracy":"EXACT_LOCATION"}},{"type":"Feature","geometry":{"crs":{"type":"name","properties":{"name":"EPSG:4326"}},"type":"Point","coordinates":[160.2191,-9.4431]},"properties":{"id":"o-AU-0G9","name":"Tetere, Solomon Islands","type":"point","region":"Asia","comment":"Georeferenced Map 1 in Data Source 13 to extract the contract area, with the boundaries refined using the location map provided in Figure 3 of Data Source 12.","country":"Solomon Islands","deal_id":1019,"description":"","facility_name":"Tetere Division 1","level_of_accuracy":"COORDINATES"}},{"type":"Feature","geometry":{"crs":{"type":"name","properties":{"name":"EPSG:4326"}},"type":"Point","coordinates":[-54.87312,5.74021]},"properties":{"id":"UXuItPq5","name":"Commewijne, Suriname","type":"point","region":"Latin America and the Caribbean","comment":"","country":"Suriname","deal_id":1021,"description":"","facility_name":"","level_of_accuracy":"ADMINISTRATIVE_REGION"}},{"type":"Feature","geometry":{"crs":{"type":"name","properties":{"name":"EPSG:4326"}},"type":"Point","coordinates":[28.65867,50.25465]},"properties":{"id":"xs6zEWQ3","name":"Житомирська область, Украина","type":"point","region":"Eastern Europe","comment":"The company leases 12 thousand hectares of land in this region.","country":"Ukraine","deal_id":1037,"description":"","facility_name":"","level_of_accuracy":"ADMINISTRATIVE_REGION"}},{"type":"Feature","geometry":{"crs":{"type":"name","properties":{"name":"EPSG:4326"}},"type":"Point","coordinates":[25.59477,49.55352]},"properties":{"id":"cV09htMy","name":"Тернопільська область, Украина","type":"point","region":"Eastern Europe","comment":"It is specified that the company leases 7 thousand hectares of land in this region.","country":"Ukraine","deal_id":1037,"description":"","facility_name":"","level_of_accuracy":"ADMINISTRATIVE_REGION"}},{"type":"Feature","geometry":{"crs":{"type":"name","properties":{"name":"EPSG:4326"}},"type":"Point","coordinates":[33.91284,49.83546]},"properties":{"id":"6taxVhTW","name":"Yares'ky, Poltavs'ka oblast, Ukraine, 38030","type":"point","region":"Eastern Europe","comment":"This is the location of one of the sugar processsing facilities. The company leases 130 thousand hectares of land in this region.","country":"Ukraine","deal_id":1037,"description":"","facility_name":"","level_of_accuracy":"EXACT_LOCATION"}},{"type":"Feature","geometry":{"crs":{"type":"name","properties":{"name":"EPSG:4326"}},"type":"Point","coordinates":[26.98713,49.42298]},"properties":{"id":"ykEaV0it","name":"Хмельницкая область, Украина","type":"point","region":"Eastern Europe","comment":"The company leases 43 thousand hectares of land in this region.","country":"Ukraine","deal_id":1037,"description":"","facility_name":"","level_of_accuracy":"ADMINISTRATIVE_REGION"}},{"type":"Feature","geometry":{"crs":{"type":"name","properties":{"name":"EPSG:4326"}},"type":"Point","coordinates":[36.23038,49.9935]},"properties":{"id":"rTUJEg00","name":"Харківська область, Украина","type":"point","region":"Eastern Europe","comment":"It is indicated that the company leases 4 thousand hectares of land in this region.","country":"Ukraine","deal_id":1037,"description":"","facility_name":"","level_of_accuracy":"ADMINISTRATIVE_REGION"}},{"type":"Feature","geometry":{"crs":{"type":"name","properties":{"name":"EPSG:4326"}},"type":"Point","coordinates":[31.28935,51.4982]},"properties":{"id":"nQyKh764","name":"Чернігівська область, Украина","type":"point","region":"Eastern Europe","comment":"It is indicated that the company leases 4 thousand hectares of land in this region.","country":"Ukraine","deal_id":1037,"description":"","facility_name":"","level_of_accuracy":"ADMINISTRATIVE_REGION"}},{"type":"Feature","geometry":{"crs":{"type":"name","properties":{"name":"EPSG:4326"}},"type":"Point","coordinates":[27.89723,49.61973]},"properties":{"id":"4f2BI5ea","name":"Zhdanivka, Vinnyts'ka oblast, Ukraine, 22050","type":"point","region":"Eastern Europe","comment":"This is the location of one of the sugar processsing facilities. It is indicated that the company leases 18 thousand hectares of land in this region. ","country":"Ukraine","deal_id":1037,"description":"","facility_name":"","level_of_accuracy":"EXACT_LOCATION"}},{"type":"Feature","geometry":{"crs":{"type":"name","properties":{"name":"EPSG:4326"}},"type":"Point","coordinates":[31.99458,46.97503]},"properties":{"id":"wqPZTB7M","name":"Mykolaiv, Mykolaivs'ka oblast, Ukraine","type":"point","region":"Eastern Europe","comment":"","country":"Ukraine","deal_id":1038,"description":"","facility_name":"","level_of_accuracy":"ADMINISTRATIVE_REGION"}},{"type":"Feature","geometry":{"crs":{"type":"name","properties":{"name":"EPSG:4326"}},"type":"Point","coordinates":[32.26232,48.50793]},"properties":{"id":"eu-mX868","name":"Kirovohrad, Kirovohrads'ka oblast, Ukraine","type":"point","region":"Eastern Europe","comment":"","country":"Ukraine","deal_id":1038,"description":"","facility_name":"","level_of_accuracy":"ADMINISTRATIVE_REGION"}},{"type":"Feature","geometry":{"crs":{"type":"name","properties":{"name":"EPSG:4326"}},"type":"Point","coordinates":[31.28935,51.4982]},"properties":{"id":"282RGtw9","name":"Chernihiv, Chernihivs'ka oblast, Ukraine","type":"point","region":"Eastern Europe","comment":"","country":"Ukraine","deal_id":1038,"description":"","facility_name":"","level_of_accuracy":"ADMINISTRATIVE_REGION"}},{"type":"Feature","geometry":{"crs":{"type":"name","properties":{"name":"EPSG:4326"}},"type":"Point","coordinates":[30.7326,46.48458]},"properties":{"id":"FwWmg6VV","name":"Одеська область, Україна","type":"point","region":"Eastern Europe","comment":"","country":"Ukraine","deal_id":1038,"description":"","facility_name":"","level_of_accuracy":"ADMINISTRATIVE_REGION"}},{"type":"Feature","geometry":{"crs":{"type":"name","properties":{"name":"EPSG:4326"}},"type":"Point","coordinates":[23.56305,49.86688]},"properties":{"id":"7NPwCvjr","name":"Лісновичі, Львівська область, Україна","type":"point","region":"Eastern Europe","comment":"","country":"Ukraine","deal_id":1047,"description":"","facility_name":"","level_of_accuracy":"APPROXIMATE_LOCATION"}},{"type":"Feature","geometry":{"crs":{"type":"name","properties":{"name":"EPSG:4326"}},"type":"Point","coordinates":[24.98864,49.35131]},"properties":{"id":"mcGhp_85","name":"Саранчуки, Тернопільська область, Україна","type":"point","region":"Eastern Europe","comment":"","country":"Ukraine","deal_id":1047,"description":"","facility_name":"","level_of_accuracy":"APPROXIMATE_LOCATION"}},{"type":"Feature","geometry":{"crs":{"type":"name","properties":{"name":"EPSG:4326"}},"type":"Point","coordinates":[24.82229,49.89519]},"properties":{"id":"-o9Vcp3P","name":"Бужок, Львівська область, Україна","type":"point","region":"Eastern Europe","comment":"","country":"Ukraine","deal_id":1047,"description":"","facility_name":"","level_of_accuracy":"APPROXIMATE_LOCATION"}},{"type":"Feature","geometry":{"crs":{"type":"name","properties":{"name":"EPSG:4326"}},"type":"Point","coordinates":[24.7991,49.71329]},"properties":{"id":"gSnpeIre","name":"Жуків, Львівська область, Україна","type":"point","region":"Eastern Europe","comment":"","country":"Ukraine","deal_id":1047,"description":"","facility_name":"","level_of_accuracy":"APPROXIMATE_LOCATION"}},{"type":"Feature","geometry":{"crs":{"type":"name","properties":{"name":"EPSG:4326"}},"type":"Point","coordinates":[23.39996,49.67209]},"properties":{"id":"AIZX8Fjm","name":"Вощанці, Львівська область, Україна","type":"point","region":"Eastern Europe","comment":"","country":"Ukraine","deal_id":1047,"description":"","facility_name":"","level_of_accuracy":"APPROXIMATE_LOCATION"}},{"type":"Feature","geometry":{"crs":{"type":"name","properties":{"name":"EPSG:4326"}},"type":"Point","coordinates":[23.43827,49.60459]},"properties":{"id":"bRXEATkN","name":"Долобів, Львівська область, Україна","type":"point","region":"Eastern Europe","comment":"","country":"Ukraine","deal_id":1047,"description":"","facility_name":"","level_of_accuracy":"APPROXIMATE_LOCATION"}},{"type":"Feature","geometry":{"crs":{"type":"name","properties":{"name":"EPSG:4326"}},"type":"Point","coordinates":[23.64029,49.4158]},"properties":{"id":"5tDh2g3s","name":"Вороблевичі, Львівська область, Україна","type":"point","region":"Eastern Europe","comment":"","country":"Ukraine","deal_id":1047,"description":"","facility_name":"","level_of_accuracy":"APPROXIMATE_LOCATION"}},{"type":"Feature","geometry":{"crs":{"type":"name","properties":{"name":"EPSG:4326"}},"type":"Point","coordinates":[24.03603,49.21386]},"properties":{"id":"3l5gJYyc","name":"Сихів, Львівська область, Україна","type":"point","region":"Eastern Europe","comment":"","country":"Ukraine","deal_id":1047,"description":"","facility_name":"","level_of_accuracy":"APPROXIMATE_LOCATION"}},{"type":"Feature","geometry":{"crs":{"type":"name","properties":{"name":"EPSG:4326"}},"type":"Point","coordinates":[24.06279,50.12379]},"properties":{"id":"nbNqlI5h","name":"Туринка, Львівська область, Україна","type":"point","region":"Eastern Europe","comment":"","country":"Ukraine","deal_id":1047,"description":"","facility_name":"","level_of_accuracy":"APPROXIMATE_LOCATION"}},{"type":"Feature","geometry":{"crs":{"type":"name","properties":{"name":"EPSG:4326"}},"type":"Point","coordinates":[23.84846,50.13385]},"properties":{"id":"E7he1XUI","name":"Добросин, Львівська область, Україна","type":"point","region":"Eastern Europe","comment":"","country":"Ukraine","deal_id":1047,"description":"","facility_name":"","level_of_accuracy":"APPROXIMATE_LOCATION"}},{"type":"Feature","geometry":{"crs":{"type":"name","properties":{"name":"EPSG:4326"}},"type":"Point","coordinates":[24.6179,49.91974]},"properties":{"id":"vDI1ywmq","name":"Красне, Львівська область, Україна","type":"point","region":"Eastern Europe","comment":"","country":"Ukraine","deal_id":1047,"description":"","facility_name":"","level_of_accuracy":"APPROXIMATE_LOCATION"}},{"type":"Feature","geometry":{"crs":{"type":"name","properties":{"name":"EPSG:4326"}},"type":"Point","coordinates":[24.6106,49.40994]},"properties":{"id":"lw_4Sasi","name":"Rohatyn, Ivano-Frankivs'ka oblast, Ukraine, 77000","type":"point","region":"Eastern Europe","comment":"","country":"Ukraine","deal_id":1047,"description":"","facility_name":"","level_of_accuracy":"ADMINISTRATIVE_REGION"}},{"type":"Feature","geometry":{"crs":{"type":"name","properties":{"name":"EPSG:4326"}},"type":"Point","coordinates":[23.51232,49.35801]},"properties":{"id":"WhKdBQal","name":"Drohobych, Lviv Oblast, Ukraine","type":"point","region":"Eastern Europe","comment":"","country":"Ukraine","deal_id":1047,"description":"","facility_name":"","level_of_accuracy":"ADMINISTRATIVE_REGION"}},{"type":"Feature","geometry":{"crs":{"type":"name","properties":{"name":"EPSG:4326"}},"type":"Point","coordinates":[23.97365,50.05888]},"properties":{"id":"HB7ubZR2","name":"Zhovkva, Lviv Oblast, Ukraine, 80300","type":"point","region":"Eastern Europe","comment":"","country":"Ukraine","deal_id":1047,"description":"","facility_name":"","level_of_accuracy":"ADMINISTRATIVE_REGION"}},{"type":"Feature","geometry":{"crs":{"type":"name","properties":{"name":"EPSG:4326"}},"type":"Point","coordinates":[23.39996,49.67209]},"properties":{"id":"2tS2JiD1","name":"Voshchantsi, Lviv Oblast, Ukraine, 81432","type":"point","region":"Eastern Europe","comment":"","country":"Ukraine","deal_id":1047,"description":"","facility_name":"","level_of_accuracy":"ADMINISTRATIVE_REGION"}},{"type":"Feature","geometry":{"crs":{"type":"name","properties":{"name":"EPSG:4326"}},"type":"Point","coordinates":[24.98864,49.35132]},"properties":{"id":"oy6Gfdsy","name":"Saranchuky, Ternopil's'ka oblast, Ukraine, 47533","type":"point","region":"Eastern Europe","comment":"","country":"Ukraine","deal_id":1047,"description":"","facility_name":"","level_of_accuracy":"ADMINISTRATIVE_REGION"}},{"type":"Feature","geometry":{"crs":{"type":"name","properties":{"name":"EPSG:4326"}},"type":"Point","coordinates":[24.85064,49.89623]},"properties":{"id":"jY9YIUjk","name":"Bilyi Kamin', Lviv Oblast, Ukraine, 80710","type":"point","region":"Eastern Europe","comment":"","country":"Ukraine","deal_id":1047,"description":"","facility_name":"","level_of_accuracy":"ADMINISTRATIVE_REGION"}},{"type":"Feature","geometry":{"crs":{"type":"name","properties":{"name":"EPSG:4326"}},"type":"Point","coordinates":[28.65867,50.25465]},"properties":{"id":"yivzN2H6","name":"Zhytomyr, Zhytomyrs'ka oblast, Ukraine","type":"point","region":"Eastern Europe","comment":"","country":"Ukraine","deal_id":1047,"description":"","facility_name":"","level_of_accuracy":"ADMINISTRATIVE_REGION"}},{"type":"Feature","geometry":{"crs":{"type":"name","properties":{"name":"EPSG:4326"}},"type":"Point","coordinates":[26.25162,50.6199]},"properties":{"id":"P9e-B3JY","name":"Rivne, Rivnens'ka oblast, Ukraine","type":"point","region":"Eastern Europe","comment":"","country":"Ukraine","deal_id":1047,"description":"","facility_name":"","level_of_accuracy":"ADMINISTRATIVE_REGION"}},{"type":"Feature","geometry":{"crs":{"type":"name","properties":{"name":"EPSG:4326"}},"type":"Point","coordinates":[25.90347,49.20308]},"properties":{"id":"bbB1s1-R","name":"Хоростків, Тернопольская область, Украина","type":"point","region":"Eastern Europe","comment":"","country":"Ukraine","deal_id":1051,"description":"","facility_name":"","level_of_accuracy":"APPROXIMATE_LOCATION"}},{"type":"Feature","geometry":{"crs":{"type":"name","properties":{"name":"EPSG:4326"}},"type":"Point","coordinates":[26.98713,49.42298]},"properties":{"id":"6vuqJZc6","name":"Khmelnytskyi, Khmel'nyts'ka oblast, Ukraine","type":"point","region":"Eastern Europe","comment":"","country":"Ukraine","deal_id":1051,"description":"","facility_name":"","level_of_accuracy":"ADMINISTRATIVE_REGION"}},{"type":"Feature","geometry":{"crs":{"type":"name","properties":{"name":"EPSG:4326"}},"type":"Point","coordinates":[25.15808,49.43057]},"properties":{"id":"4AW0CEF_","name":"Козова, Тернопольская область, Украина","type":"point","region":"Eastern Europe","comment":"","country":"Ukraine","deal_id":1051,"description":"","facility_name":"","level_of_accuracy":"APPROXIMATE_LOCATION"}},{"type":"Feature","geometry":{"crs":{"type":"name","properties":{"name":"EPSG:4326"}},"type":"Point","coordinates":[25.75299,49.23504]},"properties":{"id":"vmU-kO_B","name":"Деренівка, Тернопольская область, Украина","type":"point","region":"Eastern Europe","comment":"","country":"Ukraine","deal_id":1051,"description":"","facility_name":"","level_of_accuracy":"APPROXIMATE_LOCATION"}},{"type":"Feature","geometry":{"crs":{"type":"name","properties":{"name":"EPSG:4326"}},"type":"Point","coordinates":[24.02972,49.83968]},"properties":{"id":"c8NbpZHI","name":"Lviv, Lviv Oblast, Ukraine","type":"point","region":"Eastern Europe","comment":"","country":"Ukraine","deal_id":1051,"description":"","facility_name":"","level_of_accuracy":"ADMINISTRATIVE_REGION"}},{"type":"Feature","geometry":{"crs":{"type":"name","properties":{"name":"EPSG:4326"}},"type":"Point","coordinates":[24.27607,50.10944]},"properties":{"id":"-nDy-JeD","name":"Батятичі, Львовская область, Украина","type":"point","region":"Eastern Europe","comment":"","country":"Ukraine","deal_id":1051,"description":"","facility_name":"","level_of_accuracy":"APPROXIMATE_LOCATION"}},{"type":"Feature","geometry":{"crs":{"type":"name","properties":{"name":"EPSG:4326"}},"type":"Point","coordinates":[26.04889,48.80061]},"properties":{"id":"KT8ua8TH","name":"Борщів, Тернопольская область, Украина","type":"point","region":"Eastern Europe","comment":"","country":"Ukraine","deal_id":1051,"description":"","facility_name":"","level_of_accuracy":"APPROXIMATE_LOCATION"}},{"type":"Feature","geometry":{"crs":{"type":"name","properties":{"name":"EPSG:4326"}},"type":"Point","coordinates":[25.93522,48.29168]},"properties":{"id":"MnYe90Jy","name":"Chernivtsi, Chernivets'ka oblast, Ukraine","type":"point","region":"Eastern Europe","comment":"","country":"Ukraine","deal_id":1051,"description":"","facility_name":"","level_of_accuracy":"ADMINISTRATIVE_REGION"}},{"type":"Feature","geometry":{"crs":{"type":"name","properties":{"name":"EPSG:4326"}},"type":"Point","coordinates":[28.65867,50.25465]},"properties":{"id":"Lcq7v81b","name":"Zhytomyr, Zhytomyrs'ka oblast, Ukraine","type":"point","region":"Eastern Europe","comment":"","country":"Ukraine","deal_id":1051,"description":"","facility_name":"","level_of_accuracy":"ADMINISTRATIVE_REGION"}},{"type":"Feature","geometry":{"crs":{"type":"name","properties":{"name":"EPSG:4326"}},"type":"Point","coordinates":[26.25162,50.6199]},"properties":{"id":"Roo95VVa","name":"Rivne, Rivnens'ka oblast, Ukraine","type":"point","region":"Eastern Europe","comment":"","country":"Ukraine","deal_id":1051,"description":"","facility_name":"","level_of_accuracy":"ADMINISTRATIVE_REGION"}},{"type":"Feature","geometry":{"crs":{"type":"name","properties":{"name":"EPSG:4326"}},"type":"Point","coordinates":[24.71112,48.92263]},"properties":{"id":"Ox8vftwN","name":"Ivano-Frankivsk, Ivano-Frankivs'ka oblast, Ukraine","type":"point","region":"Eastern Europe","comment":"","country":"Ukraine","deal_id":1051,"description":"","facility_name":"","level_of_accuracy":"ADMINISTRATIVE_REGION"}},{"type":"Feature","geometry":{"crs":{"type":"name","properties":{"name":"EPSG:4326"}},"type":"Point","coordinates":[-58.53102,-29.21113]},"properties":{"id":"plr13VX7","name":"Corrientes, Corrientes Province, Argentina","type":"point","region":"Latin America and the Caribbean","comment":"Este es uno de los tres establecimientos de la empresa en la provincia","country":"Argentina","deal_id":1063,"description":"","facility_name":"Estancia oscuro","level_of_accuracy":"ADMINISTRATIVE_REGION"}},{"type":"Feature","geometry":{"crs":{"type":"name","properties":{"name":"EPSG:4326"}},"type":"Point","coordinates":[-57.72979,-29.28994]},"properties":{"id":"4DX1K7nZ","name":"","type":"point","region":"Latin America and the Caribbean","comment":"Este es uno de los tres establecimientos de la empresa en la provincia.","country":"Argentina","deal_id":1063,"description":"","facility_name":"Estancia Ita caabó","level_of_accuracy":"ADMINISTRATIVE_REGION"}},{"type":"Feature","geometry":{"crs":{"type":"name","properties":{"name":"EPSG:4326"}},"type":"Point","coordinates":[-58.04983,-29.20405]},"properties":{"id":"2M0McuDn","name":"","type":"point","region":"Latin America and the Caribbean","comment":"Este es uno de los tres establecimientos de la empresa en la provincia","country":"Argentina","deal_id":1063,"description":"","facility_name":"Molino mercedes","level_of_accuracy":"ADMINISTRATIVE_REGION"}},{"type":"Feature","geometry":{"crs":{"type":"name","properties":{"name":"EPSG:4326"}},"type":"Point","coordinates":[-60.01268,-30.73579]},"properties":{"id":"rRXtfUM_","name":"San Javier, Santa Fe Province, Argentina","type":"point","region":"Latin America and the Caribbean","comment":"Santa Fé, San Javier. Estancia San Joaquín de Pilagá\r\nCoordinates: -30.7357887748924, -60.012682\r\n\r\nSpatial data derived from the Mapathon 2020.","country":"Argentina","deal_id":1064,"description":"","facility_name":"","level_of_accuracy":"EXACT_LOCATION"}},{"type":"Feature","geometry":{"crs":{"type":"name","properties":{"name":"EPSG:4326"}},"type":"Point","coordinates":[-62.50624,-29.06084]},"properties":{"id":"zzE5sHNo","name":"Santiago del Estero, Bandera, Santiago del Estero, Argentina","type":"point","region":"Latin America and the Caribbean","comment":"Santiago del Estero, Zona de Bandera. Estancia Santa Lucía\r\nCoordinates: -29.060837, -62.506245","country":"Argentina","deal_id":1065,"description":"","facility_name":"Estancia Santa Lucía","level_of_accuracy":"COORDINATES"}},{"type":"Feature","geometry":{"crs":{"type":"name","properties":{"name":"EPSG:4326"}},"type":"Point","coordinates":[-64.21049,-24.82907]},"properties":{"id":"2RxHsbXy","name":"Las Lajitas, Salta Province, Argentina","type":"point","region":"Latin America and the Caribbean","comment":"Salta, Las Latijas. Los Guayacanes\r\nCoordinates: -24.829073, -64.210492","country":"Argentina","deal_id":1066,"description":"","facility_name":"Los guayacanes","level_of_accuracy":"COORDINATES"}},{"type":"Feature","geometry":{"crs":{"type":"name","properties":{"name":"EPSG:4326"}},"type":"Point","coordinates":[-62.19707,-28.36367]},"properties":{"id":"NXSYJDW3","name":"Los Juríes, Santiago del Estero Province, Argentina","type":"point","region":"Latin America and the Caribbean","comment":"","country":"Argentina","deal_id":1067,"description":"","facility_name":"La Guarida","level_of_accuracy":"COORDINATES"}},{"type":"Feature","geometry":{"crs":{"type":"name","properties":{"name":"EPSG:4326"}},"type":"Point","coordinates":[15.84814,-9.63403]},"properties":{"id":"NB1n5ZzD","name":"Cacuso, Angola","type":"point","region":"Africa","comment":"located at the Capanda Agro-Industrial Complex, in Cacuso, Malanje province\nShapefile uploaded from Google Earth Pro","country":"Angola","deal_id":1098,"description":"Biocom is located in the Capanda Agro- Industrial complex (PAC), in the city of Cacuso, Malanje Province.","facility_name":"Companhia de Bioenergia de Angola - Biocom","level_of_accuracy":"COORDINATES"}},{"type":"Feature","geometry":{"crs":{"type":"name","properties":{"name":"EPSG:4326"}},"type":"Point","coordinates":[2.40067,8.07357]},"properties":{"id":"HH_9Na7_","name":"Save, Benin","type":"point","region":"Africa","comment":"Polygon drawn from Google Earth Pro","country":"Benin","deal_id":1113,"description":"SUCOBE is located in the suburbs of the city of Savè in the Collines department, about 260 km from the capital Cotonou.","facility_name":" Sucrerie de Complant du Bénin (SUCOBE)","level_of_accuracy":"COORDINATES"}},{"type":"Feature","geometry":{"crs":{"type":"name","properties":{"name":"EPSG:4326"}},"type":"Point","coordinates":[11.98416,4.433]},"properties":{"id":"9Xcy0iPb","name":"M'Bandjock, Cameroon","type":"point","region":"Africa","comment":"Haute-Sanaga Region- the Biboto and Ndo village.","country":"Cameroon","deal_id":1141,"description":"","facility_name":"","level_of_accuracy":"COORDINATES"}},{"type":"Feature","geometry":{"crs":{"type":"name","properties":{"name":"EPSG:4326"}},"type":"Point","coordinates":[12.06334,4.43657]},"properties":{"id":"w9kA8ibX","name":"Nkoteng, Cameroon","type":"point","region":"Africa","comment":"Haute-Sanaga Region- Simbane village,  in the district of Lembe-Yezoum at a place called Messassa, Mvan Village, Ouassa village, Ebometende village and Elap Village.","country":"Cameroon","deal_id":1141,"description":"","facility_name":"","level_of_accuracy":"COORDINATES"}},{"type":"Feature","geometry":{"crs":{"type":"name","properties":{"name":"EPSG:4326"}},"type":"Point","coordinates":[15.734328,1.45241]},"properties":{"id":"5sNWaHG7","name":"Rue MAKOLA, Brazzaville, Congo","type":"point","region":"Africa","comment":"Located in District Mokeko. The company has a 40,000 ha concession.","country":"Congo, Rep.","deal_id":1165,"description":"","facility_name":"","level_of_accuracy":"COORDINATES"}},{"type":"Feature","geometry":{"crs":{"type":"name","properties":{"name":"EPSG:4326"}},"type":"Point","coordinates":[14.983271,-0.031936]},"properties":{"id":"DVpoNSG0","name":"Etoumbi, Congo","type":"point","region":"Africa","comment":"Located in Etoumbi, Congo\nSangha plantation in Cuvette-Ouest district-- 100ha.","country":"Congo, Rep.","deal_id":1165,"description":"","facility_name":"","level_of_accuracy":"COORDINATES"}},{"type":"Feature","geometry":{"crs":{"type":"name","properties":{"name":"EPSG:4326"}},"type":"Point","coordinates":[15.954885,-0.529504]},"properties":{"id":"godcX0--","name":"Owando, Congo","type":"point","region":"Africa","comment":"RNPC land in the Cuvette district- 500ha.","country":"Congo, Rep.","deal_id":1165,"description":"","facility_name":"","level_of_accuracy":"COORDINATES"}},{"type":"Feature","geometry":{"crs":{"type":"name","properties":{"name":"EPSG:4326"}},"type":"Point","coordinates":[12.50472,-3.74389]},"properties":{"id":"bVO5Mu0g","name":"Niari, Congo","type":"point","region":"Africa","comment":"Nyari Vallée as additional location\r\nexact coordonates (-3.743889, 12.504722). 180 kilometres from the port of Pointe-Noire.\r\nNiari, Congo","country":"Congo, Rep.","deal_id":1167,"description":"","facility_name":"","level_of_accuracy":"COORDINATES"}},{"type":"Feature","geometry":{"crs":{"type":"name","properties":{"name":"EPSG:4326"}},"type":"Point","coordinates":[31.28081,22.69512]},"properties":{"id":"lJkW5fIs","name":"Toshka, Aswan Governorate, Egypt","type":"point","region":"Africa","comment":"uploaded shapefile polygon","country":"Egypt, Arab Rep.","deal_id":1172,"description":"The farm is located in Toshka","facility_name":"Al Dahra Agriculture","level_of_accuracy":"COORDINATES"}},{"type":"Feature","geometry":{"crs":{"type":"name","properties":{"name":"EPSG:4326"}},"type":"Point","coordinates":[32.49486,26.04005]},"properties":{"id":"njzgf0xG","name":"Dishna, Madinet Dishna, Dishna, Egypt","type":"point","region":"Africa","comment":"Located in Dishna, Madinet Dishna, Egypt.\nUploaded shapefile polygon uploaded","country":"Egypt, Arab Rep.","deal_id":1175,"description":"The farm is located El-Marashda desert that lies in Qena province in southern Egypt across the banks of the Nile river","facility_name":"","level_of_accuracy":"COORDINATES"}},{"type":"Feature","geometry":{"crs":{"type":"name","properties":{"name":"EPSG:4326"}},"type":"Point","coordinates":[31.57497,23.1969]},"properties":{"id":"UpqQo66D","name":"Toshka, Aswan, Egypt","type":"point","region":"Africa","comment":"Uploaded shapefile polygon","country":"Egypt, Arab Rep.","deal_id":1181,"description":"","facility_name":"","level_of_accuracy":"COORDINATES"}},{"type":"Feature","geometry":{"crs":{"type":"name","properties":{"name":"EPSG:4326"}},"type":"Point","coordinates":[38.39235,6.87406]},"properties":{"id":"QIl9dn3o","name":"Anno, Ethiopia","type":"point","region":"Africa","comment":"Located in Anno, Ethiopia.","country":"Ethiopia","deal_id":1215,"description":"","facility_name":"","level_of_accuracy":"ADMINISTRATIVE_REGION"}},{"type":"Feature","geometry":{"crs":{"type":"name","properties":{"name":"EPSG:4326"}},"type":"Point","coordinates":[36.58333,8.91667]},"properties":{"id":"4wct9DSA","name":"Bandira, Ethiopia","type":"point","region":"Africa","comment":"Bandira kebele, Dima District, Gambela Regional state","country":"Ethiopia","deal_id":1218,"description":"The farm is located in Gambella Regional State, Agnuwa Zone, Dima District, Bandira KAbele","facility_name":"","level_of_accuracy":"EXACT_LOCATION"}},{"type":"Feature","geometry":{"crs":{"type":"name","properties":{"name":"EPSG:4326"}},"type":"Point","coordinates":[36.07876,4.81389]},"properties":{"id":"sPmn1a7f","name":"Omorate, Ethiopia","type":"point","region":"Africa","comment":"South of Hana, close to the Kenyan border, I find Omorate, a big, dry village on the banks of the Omo River.Dasenech woreda, South Omo Region.\n\nPolygon has been drawn from Google Earth Pro","country":"Ethiopia","deal_id":1230,"description":"The project is located in the SNNP region at West Omo Zone at Dasenech Woreda. The farm is situated along the River side of Omo at about 870 km away from Addis Ababa, 370 km away from Arba Minch (North Omo Zone) & 210 km from Jink(South Omo Zone).","facility_name":"Fri-El Ethiopia Farming & Processing PLC  ","level_of_accuracy":"COORDINATES"}},{"type":"Feature","geometry":{"crs":{"type":"name","properties":{"name":"EPSG:4326"}},"type":"Point","coordinates":[35.49063,8.14783]},"properties":{"id":"Ogq-j86Y","name":"Oromia Region, Illubabore Zone","type":"point","region":"Africa","comment":"located in Oromia Region, Illubabor zone.\nShapefile derived from Google Earth Pro","country":"Ethiopia","deal_id":1233,"description":"Gumaro plantation- 637 km South West of Addis Ababa","facility_name":"Gumaro Tea Plantation","level_of_accuracy":"COORDINATES"}},{"type":"Feature","geometry":{"crs":{"type":"name","properties":{"name":"EPSG:4326"}},"type":"Point","coordinates":[35.56579,10.78029]},"properties":{"id":"uHcD94yt","name":"Metekel, Ethiopia","type":"point","region":"Africa","comment":"","country":"Ethiopia","deal_id":1241,"description":"","facility_name":"","level_of_accuracy":"ADMINISTRATIVE_REGION"}},{"type":"Feature","geometry":{"crs":{"type":"name","properties":{"name":"EPSG:4326"}},"type":"Point","coordinates":[35.56579,6.63151]},"properties":{"id":"FjOkqNWL","name":"Bench Maji, Ethiopia","type":"point","region":"Africa","comment":"Mezenger, Metekel, and Bench-Maji zones of the Gambella, Benishangul-Gumuz, and South Ethiopia Peoples' States respectively","country":"Ethiopia","deal_id":1241,"description":"","facility_name":"","level_of_accuracy":"ADMINISTRATIVE_REGION"}},{"type":"Feature","geometry":{"crs":{"type":"name","properties":{"name":"EPSG:4326"}},"type":"Point","coordinates":[35.56579,10.78029]},"properties":{"id":"ZEb0JiwT","name":"Benishangul-Gumuz, Ethiopia","type":"point","region":"Africa","comment":"","country":"Ethiopia","deal_id":1241,"description":"","facility_name":"","level_of_accuracy":"ADMINISTRATIVE_REGION"}},{"type":"Feature","geometry":{"crs":{"type":"name","properties":{"name":"EPSG:4326"}},"type":"Point","coordinates":[35.28763,11.26953]},"properties":{"id":"Teii_Vbf","name":"Guba, Ethiopia","type":"point","region":"Africa","comment":"Aychichiniya Abultu kebele in Guba district in Metekel zone in Binshangul Gumuz regional state.","country":"Ethiopia","deal_id":1242,"description":"","facility_name":"","level_of_accuracy":"ADMINISTRATIVE_REGION"}},{"type":"Feature","geometry":{"crs":{"type":"name","properties":{"name":"EPSG:4326"}},"type":"Point","coordinates":[34.25329,7.90555]},"properties":{"id":"cLnRd6EJ","name":"Abobo, Ethiopia","type":"point","region":"Africa","comment":"Pierbengo and Pukedi Kebeles, Abobo district, western region of Gambela Regional State.\n\nShapefile added from Google earth pro","country":"Ethiopia","deal_id":1244,"description":"","facility_name":"","level_of_accuracy":"EXACT_LOCATION"}},{"type":"Feature","geometry":{"crs":{"type":"name","properties":{"name":"EPSG:4326"}},"type":"Point","coordinates":[43.79085,6.66123]},"properties":{"id":"lHajRc7F","name":"Somali, Ethiopia","type":"point","region":"Africa","comment":"Situated in Gad kebele,Shinile Zone, near Dire Dawa.","country":"Ethiopia","deal_id":1274,"description":"Gad kebele, Shinile District, Shinile Zone, Somali Regional State, Ethiopia.","facility_name":"","level_of_accuracy":"ADMINISTRATIVE_REGION"}},{"type":"Feature","geometry":{"crs":{"type":"name","properties":{"name":"EPSG:4326"}},"type":"Point","coordinates":[40.987988,7.850186]},"properties":{"id":"r32nuY8n","name":"Beltu, Ethiopia","type":"point","region":"Africa","comment":"Beltu, Bale Zone, Oromia regional state","country":"Ethiopia","deal_id":1297,"description":"","facility_name":"","level_of_accuracy":"EXACT_LOCATION"}},{"type":"Feature","geometry":{"crs":{"type":"name","properties":{"name":"EPSG:4326"}},"type":"Point","coordinates":[35.12688,7.31874]},"properties":{"id":"Amh9FYFk","name":"Godere, Ethiopia","type":"point","region":"Africa","comment":"Gambela regional state, Mezhenger zone, Godere weredas, Gumare&Kabu districts","country":"Ethiopia","deal_id":1303,"description":"","facility_name":"","level_of_accuracy":"ADMINISTRATIVE_REGION"}},{"type":"Feature","geometry":{"crs":{"type":"name","properties":{"name":"EPSG:4326"}},"type":"Point","coordinates":[35.28763,11.26953]},"properties":{"id":"hkFHpnk_","name":"Guba, Ethiopia","type":"point","region":"Africa","comment":"Situated in Guba Ethiopia","country":"Ethiopia","deal_id":1304,"description":"","facility_name":"","level_of_accuracy":"ADMINISTRATIVE_REGION"}},{"type":"Feature","geometry":{"crs":{"type":"name","properties":{"name":"EPSG:4326"}},"type":"Point","coordinates":[36.18333,11.75]},"properties":{"id":"RbVSGqzN","name":"Dangur, Ethiopia","type":"point","region":"Africa","comment":"Benshangul Gumuz regional state, Metekel zone, Dangur&Guba districts","country":"Ethiopia","deal_id":1304,"description":"","facility_name":"","level_of_accuracy":"ADMINISTRATIVE_REGION"}},{"type":"Feature","geometry":{"crs":{"type":"name","properties":{"name":"EPSG:4326"}},"type":"Point","coordinates":[-0.71793,8.24713]},"properties":{"id":"V-sMV4gn","name":"Yeji, Ghana","type":"point","region":"Africa","comment":"Brong-Ahafo province,  Pru district. In three plots close together- Kwaese plot 1 171ha, plot 2 kadue 813ha, plot 3 gentydua 5766ha.","country":"Ghana","deal_id":1322,"description":"","facility_name":"","level_of_accuracy":"COORDINATES"}},{"type":"Feature","geometry":{"crs":{"type":"name","properties":{"name":"EPSG:4326"}},"type":"Point","coordinates":[-0.71527,5.43543]},"properties":{"id":"Cj9sGy-S","name":"Gomoa, Ghana","type":"point","region":"Africa","comment":"Cocoa nursery with 20,000 plants planned to be established in the fall of 2012. Transplanting will take place at the start of the rainy season in 2013.","country":"Ghana","deal_id":1337,"description":"","facility_name":"","level_of_accuracy":"ADMINISTRATIVE_REGION"}},{"type":"Feature","geometry":{"crs":{"type":"name","properties":{"name":"EPSG:4326"}},"type":"Point","coordinates":[0.36071,5.88276]},"properties":{"id":"Y8fp1Wf4","name":"Sege, Ghana","type":"point","region":"Africa","comment":"Site near Sege and Old Ningo\r\n150 ha test farm, where Jatropha hedges in various lay outs are tested in combination with a large number of locally adaptable food crops; in 2010 a small poultry farm was added primarily using local methods.","country":"Ghana","deal_id":1337,"description":"","facility_name":"","level_of_accuracy":"ADMINISTRATIVE_REGION"}},{"type":"Feature","geometry":{"crs":{"type":"name","properties":{"name":"EPSG:4326"}},"type":"Point","coordinates":[-1.51883,8.65319]},"properties":{"id":"s_YS6-X2","name":"Buipe, Ghana","type":"point","region":"Africa","comment":"In the village of Kadelso. Location coordinates from Ghana data campaign.\nJatropha plantations would be established in the Brong-Ahafo and Northern Regions.","country":"Ghana","deal_id":1338,"description":"Paragon Farms, N10 (5 miles south of Buipe), Kadelso.","facility_name":"","level_of_accuracy":"COORDINATES"}},{"type":"Feature","geometry":{"crs":{"type":"name","properties":{"name":"EPSG:4326"}},"type":"Point","coordinates":[34.14894,0.01202]},"properties":{"id":"P2pvZJ4V","name":"Yala Swamp, Kenya","type":"point","region":"Africa","comment":"Production area digitized from NICFI imagery of Jan 2025.  Contract Area digitized from National Land Commission Determination, pg 6","country":"Kenya","deal_id":1374,"description":"Lake Agro offices within the plantation","facility_name":" Lake Agro Limited","level_of_accuracy":"COORDINATES"}},{"type":"Feature","geometry":{"crs":{"type":"name","properties":{"name":"EPSG:4326"}},"type":"Point","coordinates":[-6.14078,13.79797]},"properties":{"id":"aky4zZWN","name":"Canal du Sahel, Mali","type":"point","region":"Africa","comment":"Office du Niger,  Séribala and Dougabougou\n\nSpatial data derived from the Mapathon 2020\nThe size of the shapefile is 7794 ha","country":"Mali","deal_id":1467,"description":"","facility_name":"N'Sukula","level_of_accuracy":"COORDINATES"}},{"type":"Feature","geometry":{"crs":{"type":"name","properties":{"name":"EPSG:4326"}},"type":"Point","coordinates":[36.88722,-17.87639]},"properties":{"id":"oCs-5z8W","name":"Quelimane, Mozambique","type":"point","region":"Africa","comment":"Zambezia Province, Quelimane","country":"Mozambique","deal_id":1538,"description":"","facility_name":"","level_of_accuracy":"ADMINISTRATIVE_REGION"}},{"type":"Feature","geometry":{"crs":{"type":"name","properties":{"name":"EPSG:4326"}},"type":"Point","coordinates":[32.24762,-25.45071]},"properties":{"id":"Re2VEChx","name":"Moamba, Mozambique","type":"point","region":"Africa","comment":"Area in operation polygon shapefile uploaded from Google Earth Pro.\n","country":"Mozambique","deal_id":1565,"description":"","facility_name":"Horta Boa","level_of_accuracy":"ADMINISTRATIVE_REGION"}},{"type":"Feature","geometry":{"crs":{"type":"name","properties":{"name":"EPSG:4326"}},"type":"Point","coordinates":[36.69647,-15.20172]},"properties":{"id":"FCQOSFtn","name":"Lioma, Mozambique","type":"point","region":"Africa","comment":"Zambezia Province, Gurue District, Lioma, Tetete, Magige. Ruace-Tetete.","country":"Mozambique","deal_id":1572,"description":"","facility_name":"","level_of_accuracy":"EXACT_LOCATION"}},{"type":"Feature","geometry":{"crs":{"type":"name","properties":{"name":"EPSG:4326"}},"type":"Point","coordinates":[17.9219,-26.93354]},"properties":{"id":"ZYIERK_t","name":"Naute, Namibia","type":"point","region":"Africa","comment":"Karas Region in southern Namibia. 55 kilometres south west of Keetmanshoop City\nArea in operation polygon added from Google Earth Pro","country":"Namibia","deal_id":1652,"description":"","facility_name":"","level_of_accuracy":"COORDINATES"}},{"type":"Feature","geometry":{"crs":{"type":"name","properties":{"name":"EPSG:4326"}},"type":"Point","coordinates":[5.1693,8.943762]},"properties":{"id":"2_k9QIwj","name":"Shonga, Nigeria","type":"point","region":"Africa","comment":"Shonga, Edu LGA (Edu Local Government Area (LGA) consisting of Lafiaji, Sharayi and Shonga\nShonga is located at about 110 kilometres (68 miles) north of Ilorin, the Kwara State capital. The area lies in the Guinea Savannah along the bank of the River Niger.","country":"Nigeria","deal_id":1683,"description":"","facility_name":"","level_of_accuracy":"EXACT_LOCATION"}},{"type":"Feature","geometry":{"crs":{"type":"name","properties":{"name":"EPSG:4326"}},"type":"Point","coordinates":[8.31434,7.88687]},"properties":{"id":"AnbXuhAr","name":"Nasarawa, Nigeria","type":"point","region":"Africa","comment":"Ondorie area of Doma Local Government Area of Nasarawa State. Located on the banks of River Benue, 265 kilometres off the Federal Capital Territory (FCT), Abuja, and approximately 150 kilometres off Lafia.\r\n\r\nSpatial data derived from the Mapathon 2020.","country":"Nigeria","deal_id":1684,"description":"","facility_name":"","level_of_accuracy":"COORDINATES"}},{"type":"Feature","geometry":{"crs":{"type":"name","properties":{"name":"EPSG:4326"}},"type":"Point","coordinates":[4.7821,8.94074]},"properties":{"id":"54c6goO5","name":"Bode Sadu, Nigeria","type":"point","region":"Africa","comment":"Fallah, Moro LGA, Kwara State","country":"Nigeria","deal_id":1685,"description":"","facility_name":"","level_of_accuracy":"ADMINISTRATIVE_REGION"}},{"type":"Feature","geometry":{"crs":{"type":"name","properties":{"name":"EPSG:4326"}},"type":"Point","coordinates":[6.26667,9.23333]},"properties":{"id":"Kj8MKuw-","name":"Patigi, Ebba, Nigeria","type":"point","region":"Africa","comment":"Located in Nidanaku, Patigi LGA","country":"Nigeria","deal_id":1695,"description":"","facility_name":"","level_of_accuracy":"ADMINISTRATIVE_REGION"}},{"type":"Feature","geometry":{"crs":{"type":"name","properties":{"name":"EPSG:4326"}},"type":"Point","coordinates":[6.26667,9.23333]},"properties":{"id":"pJnM8Iv6","name":"Patigi, Ebba, Nigeria","type":"point","region":"Africa","comment":"Echi-Wada Patigi LGA (Local Government Area)","country":"Nigeria","deal_id":1696,"description":"","facility_name":"","level_of_accuracy":"ADMINISTRATIVE_REGION"}},{"type":"Feature","geometry":{"crs":{"type":"name","properties":{"name":"EPSG:4326"}},"type":"Point","coordinates":[5.34097,9.827]},"properties":{"id":"y-rl7DYu","name":"Fage, Nigeria","type":"point","region":"Africa","comment":"Akunyun/Faje, Asa LGA","country":"Nigeria","deal_id":1696,"description":"","facility_name":"","level_of_accuracy":"ADMINISTRATIVE_REGION"}},{"type":"Feature","geometry":{"crs":{"type":"name","properties":{"name":"EPSG:4326"}},"type":"Point","coordinates":[33.70706,18.20471]},"properties":{"id":"FDrm6pSL","name":"Berber, Sudan","type":"point","region":"Africa","comment":"","country":"Sudan","deal_id":1721,"description":"","facility_name":"","level_of_accuracy":"EXACT_LOCATION"}},{"type":"Feature","geometry":{"crs":{"type":"name","properties":{"name":"EPSG:4326"}},"type":"Point","coordinates":[29.41793,13.83064]},"properties":{"id":"nYRZDn-H","name":"North Kurdufan, Sudan","type":"point","region":"Africa","comment":"The farm is located in Nile province,Sudan North Kurdufan","country":"Sudan","deal_id":1727,"description":"","facility_name":"","level_of_accuracy":"ADMINISTRATIVE_REGION"}},{"type":"Feature","geometry":{"crs":{"type":"name","properties":{"name":"EPSG:4326"}},"type":"Point","coordinates":[-16.35163,16.0776]},"properties":{"id":"VKijlVrM","name":"Makhana, Senegal","type":"point","region":"Africa","comment":"According to the company's website, GDS operates an area of 304 ha in 3 localities : Mbarigo (234ha), Lampsar (40ha), Ndiawdoune(30ha) divided between 3 blocks.  But according to the spatial boundaries of the transaction we have 619,837 ha.","country":"Senegal","deal_id":1777,"description":"Grands Domaines du Sénégal (GDS), has blocks in 3 localities: Lampsar, Ndiawdoun, Mbarigo","facility_name":"Grands Domaines du Sénégal","level_of_accuracy":"COORDINATES"}},{"type":"Feature","geometry":{"crs":{"type":"name","properties":{"name":"EPSG:4326"}},"type":"Point","coordinates":[-16.4019,16.12317]},"properties":{"id":"gf-olL3i","name":"Mbéraye, Sénégal","type":"point","region":"Africa","comment":"Saint-Louis , Diama, Mberaay\n\nSpatial data derived from NLO Senegal.","country":"Senegal","deal_id":1796,"description":"Société des Tomates Séchées est un magasin de fruits et légumes situé sur Mberaye. Société des Tomates Séchées est située à proximité du village Lampsar.","facility_name":"SOCIÉTÉ DE TOMATES SÉCHÉES","level_of_accuracy":"COORDINATES"}},{"type":"Feature","geometry":{"crs":{"type":"name","properties":{"name":"EPSG:4326"}},"type":"Point","coordinates":[-12.23565,8.71371]},"properties":{"id":"xdwKffNA","name":"Gbanti, Sierra Leone","type":"point","region":"Africa","comment":"Makari Gbanti in Bombali district. Near the Rokel river. The company first considered Brazil, Mozambique and Ghana before settling on Sierra Leone.\r\n\r\nSpatial data derived from the Mapathon 2020. Only processing facilities delineated.","country":"Sierra Leone","deal_id":1798,"description":"","facility_name":"","level_of_accuracy":"COORDINATES"}},{"type":"Feature","geometry":{"crs":{"type":"name","properties":{"name":"EPSG:4326"}},"type":"Point","coordinates":[-12.45042,8.65499]},"properties":{"id":"92KyzqwH","name":"Masimera, Sierra Leone","type":"point","region":"Africa","comment":"","country":"Sierra Leone","deal_id":1820,"description":"","facility_name":"","level_of_accuracy":"EXACT_LOCATION"}},{"type":"Feature","geometry":{"crs":{"type":"name","properties":{"name":"EPSG:4326"}},"type":"Point","coordinates":[31.34874,-26.50369]},"properties":{"id":"tcppFhnC","name":"MR9, Swaziland","type":"point","region":"Africa","comment":"located along the MR9 about 16 kilometers south of Mhlaleni intersection (PLOT 6 PEBBLES BLOCK NHLANGANO RD\r\nSIDVOKODVO).","country":"Swaziland","deal_id":1827,"description":"","facility_name":"","level_of_accuracy":"APPROXIMATE_LOCATION"}},{"type":"Feature","geometry":{"crs":{"type":"name","properties":{"name":"EPSG:4326"}},"type":"Point","coordinates":[29.63333,-4.88333]},"properties":{"id":"M4CWeIs1","name":"Kigoma, Tanzania","type":"point","region":"Africa","comment":"Situated at Kigoma Region, Basanza village","country":"Tanzania","deal_id":1872,"description":"100-hectare oil palm plantation 75km from Kigoma town. Another 4,258 hectares of land 150km from Kigoma","facility_name":"","level_of_accuracy":"ADMINISTRATIVE_REGION"}},{"type":"Feature","geometry":{"crs":{"type":"name","properties":{"name":"EPSG:4326"}},"type":"Point","coordinates":[35.27454,-7.99819]},"properties":{"id":"Klgk9G_T","name":"Iringa, Tanzania","type":"point","region":"Africa","comment":"Situated in Iringa, Tanzania","country":"Tanzania","deal_id":1938,"description":"","facility_name":"","level_of_accuracy":"EXACT_LOCATION"}},{"type":"Feature","geometry":{"crs":{"type":"name","properties":{"name":"EPSG:4326"}},"type":"Point","coordinates":[31.47263,0.62954]},"properties":{"id":"6QlgENJt","name":"Mubende, Uganda","type":"point","region":"Africa","comment":"Located in the Mubende District,  about 200 km west of the capital, Kampala\n\nShapefile derived from Google Earth Satellite","country":"Uganda","deal_id":1963,"description":"","facility_name":"","level_of_accuracy":"COORDINATES"}},{"type":"Feature","geometry":{"crs":{"type":"name","properties":{"name":"EPSG:4326"}},"type":"Point","coordinates":[23.5437,1.14228]},"properties":{"id":"NtFBwY7h","name":"Lokutu, Democratic Republic of the Congo","type":"point","region":"Africa","comment":"63,560 hectares. Lokutu is made up of three estates (Lokutu, Mosite and Lokumete) consisting of eight concessions.\nThe company PHC/KKM2 Area \nLokutu is located in the Province of Tshopo, Territory of Basoko,\nex-city Band\nShapefile added from satellite imagery","country":"Congo, Dem. Rep.","deal_id":1999,"description":"Lokutu It is 1,530 km by river from Kinshasa, the Country’s capital city, and 210 km from Kisangani, the Country’s third largest city. Kisangani is an important trading hub in the North East of the DRC with a population of around 1 million people and an airport with regular flights to Kinshasa and other towns and cities in the DRC.","facility_name":"Lokutu Plantation","level_of_accuracy":"COORDINATES"}},{"type":"Feature","geometry":{"crs":{"type":"name","properties":{"name":"EPSG:4326"}},"type":"Point","coordinates":[22.89864,2.26005]},"properties":{"id":"tZTS4n7M","name":"Yaligimba, Democratic Republic of the Congo","type":"point","region":"Africa","comment":"30,199 hectares. Yaligimba is made up of two estates (Nord and Sud) consisting of 46 concessions\nShapefile added from satellite imagery","country":"Congo, Dem. Rep.","deal_id":1999,"description":"The Yaligimba plantation is in the Equateur province of the DRC, 210 km West of Lokutu and approximately 1,320 km from Kinshasa. Situated close to the Itimbiri tributary to the Congo River, the nearest town, Bumba, is 60 km by road. Bumba has a population of approximately 107,000 and an airport with regular flights to Kinshasa and Kisangani.","facility_name":"Yagilimba Plantation","level_of_accuracy":"COORDINATES"}},{"type":"Feature","geometry":{"crs":{"type":"name","properties":{"name":"EPSG:4326"}},"type":"Point","coordinates":[19.09251,-0.41267]},"properties":{"id":"wNOC4ize","name":"Boteka, Democratic Republic of the Congo","type":"point","region":"Africa","comment":"13,542 hectares. Boteka consists of 31 concessions\n\nShapefile added from satellite imagery","country":"Congo, Dem. Rep.","deal_id":1999,"description":"Boteka is 110 km east of the town of Mbandaka, which has a population of approximately half a million people and an airport with regular flights to Kinshasa and other towns and cities in the DRC.","facility_name":"Boteka Plantation","level_of_accuracy":"COORDINATES"}},{"type":"Feature","geometry":{"crs":{"type":"name","properties":{"name":"EPSG:4326"}},"type":"Point","coordinates":[28.28717,-15.40819]},"properties":{"id":"08arSALp","name":"Lusaka, Zambia","type":"point","region":"Africa","comment":"Located in thenorth west of Lusaka","country":"Zambia","deal_id":2020,"description":"","facility_name":"","level_of_accuracy":"ADMINISTRATIVE_REGION"}},{"type":"Feature","geometry":{"crs":{"type":"name","properties":{"name":"EPSG:4326"}},"type":"Point","coordinates":[28.39294,-14.38343]},"properties":{"id":"e7LK23c8","name":"Kabwe, Zambia","type":"point","region":"Africa","comment":"Mutuwila Farm (Farm 3278)","country":"Zambia","deal_id":2024,"description":"","facility_name":"","level_of_accuracy":"ADMINISTRATIVE_REGION"}},{"type":"Feature","geometry":{"crs":{"type":"name","properties":{"name":"EPSG:4326"}},"type":"Point","coordinates":[26.48501,-17.0351]},"properties":{"id":"1g7mQk3S","name":"Kalomo, Zambia","type":"point","region":"Africa","comment":"Kala Farms","country":"Zambia","deal_id":2024,"description":"","facility_name":"","level_of_accuracy":"ADMINISTRATIVE_REGION"}},{"type":"Feature","geometry":{"crs":{"type":"name","properties":{"name":"EPSG:4326"}},"type":"Point","coordinates":[27.16103,-16.59331]},"properties":{"id":"WMYJ5fDY","name":"Choma, Zambia","type":"point","region":"Africa","comment":"Buffalo Farms (21KM FROM CHOMA ON NAMWALA RD-- Farm 1630)(-16° 35.484', 26° 56.307') & Duba Farms (5KM OFF MOMBA FARM)(-16° 35.890', 27° 9.835')","country":"Zambia","deal_id":2024,"description":"","facility_name":"","level_of_accuracy":"COORDINATES"}},{"type":"Feature","geometry":{"crs":{"type":"name","properties":{"name":"EPSG:4326"}},"type":"Point","coordinates":[25.62342,-17.81045]},"properties":{"id":"5kipCYGI","name":"Victoria Falls, Zambia","type":"point","region":"Africa","comment":"Kalonga Estates is located on the banks of the mighty Zambezi river, just 30km from the Victoria Falls.\r\n\r\nSpatial data derived from the Mapathon 2020. Area to the South possibly also part of the deal.","country":"Zambia","deal_id":2050,"description":"","facility_name":"","level_of_accuracy":"COORDINATES"}},{"type":"Feature","geometry":{"crs":{"type":"name","properties":{"name":"EPSG:4326"}},"type":"Point","coordinates":[29.27077,-13.72901]},"properties":{"id":"j9NEj8Ts","name":"Mkushi, Zambia","type":"point","region":"Africa","comment":"Mkushi farm block","country":"Zambia","deal_id":2053,"description":"","facility_name":"","level_of_accuracy":"COORDINATES"}},{"type":"Feature","geometry":{"crs":{"type":"name","properties":{"name":"EPSG:4326"}},"type":"Point","coordinates":[-0.9603,6.96769]},"properties":{"id":"zjmj0xLV","name":"Agogo, Ghana","type":"point","region":"Africa","comment":"surrounding area of Agogo, Ashanti region\r\n Asante Akyim North district\r\n\r\nSpatial data derived from satellite imagery.","country":"Ghana","deal_id":2241,"description":"","facility_name":"","level_of_accuracy":"COORDINATES"}},{"type":"Feature","geometry":{"crs":{"type":"name","properties":{"name":"EPSG:4326"}},"type":"Point","coordinates":[39.818935,-13.668244]},"properties":{"id":"10sgQZX-","name":"Ocua, Mozambique","type":"point","region":"Africa","comment":"Sources indicate it to be Maurunga village/ocua in Chiure District, Cabo Delgado Province\nLocated in Chipemba; Mapupulu, Balma district, Capo Delgado. ","country":"Mozambique","deal_id":2283,"description":"","facility_name":"Ouro Verde Farm","level_of_accuracy":"EXACT_LOCATION"}},{"type":"Feature","geometry":{"crs":{"type":"name","properties":{"name":"EPSG:4326"}},"type":"Point","coordinates":[57.60637,-20.37072]},"properties":{"id":"2sHb-PNg","name":"Cluny, Mauritius","type":"point","region":"Africa","comment":"Located in Cluny, Mauritius","country":"Mauritius","deal_id":2289,"description":"","facility_name":"","level_of_accuracy":"ADMINISTRATIVE_REGION"}},{"type":"Feature","geometry":{"crs":{"type":"name","properties":{"name":"EPSG:4326"}},"type":"Point","coordinates":[30.88001,17.8769]},"properties":{"id":"aeobRPdW","name":"Al Dabbah, Sudan","type":"point","region":"Africa","comment":"\"in the North\", 3 different projects\nLocated near White Nile State.\nShapefile uploaded from Google Earth Pro","country":"Sudan","deal_id":2293,"description":"","facility_name":"","level_of_accuracy":"COORDINATES"}},{"type":"Feature","geometry":{"crs":{"type":"name","properties":{"name":"EPSG:4326"}},"type":"Point","coordinates":[34.15319,11.58601]},"properties":{"id":"ESmHivmM","name":"Blue Nile, Sudan","type":"point","region":"Africa","comment":"Agadi,  Blue Nile state","country":"Sudan","deal_id":2335,"description":"400 kilometres away from Khartoum","facility_name":"","level_of_accuracy":"ADMINISTRATIVE_REGION"}},{"type":"Feature","geometry":{"crs":{"type":"name","properties":{"name":"EPSG:4326"}},"type":"Point","coordinates":[32.46478,13.99714]},"properties":{"id":"_5IR5fRd","name":"Abu Hibeira, Sudan","type":"point","region":"Africa","comment":"Eastern Bank of White Nile\nKSC production site is located approximately 270 KM south to Khartoum\nUploaded shapefile polygon","country":"Sudan","deal_id":2352,"description":"","facility_name":"","level_of_accuracy":"COORDINATES"}},{"type":"Feature","geometry":{"crs":{"type":"name","properties":{"name":"EPSG:4326"}},"type":"Point","coordinates":[-11.8423,7.4358]},"properties":{"id":"H85Lr3Vz","name":"Saba, Sierra Leone","type":"point","region":"Africa","comment":"Located in Southern District of Pujehun  (Malen Chiefdom","country":"Sierra Leone","deal_id":2371,"description":" Socfin Agricultural Company (SAC), Sahn, Malen chiefdom","facility_name":" Socfin Agricultural Company (SAC) ","level_of_accuracy":"COORDINATES"}},{"type":"Feature","geometry":{"crs":{"type":"name","properties":{"name":"EPSG:4326"}},"type":"Point","coordinates":[-12.01105,8.6622]},"properties":{"id":"cnIk5O1h","name":"Tonkolili, Sierra Leone","type":"point","region":"Africa","comment":"Located in Tonkolili, Sierra Leone. One source states close to Mabum- but could see no production in that area.\n\nArea in operation shapefile from Google Earth pro","country":"Sierra Leone","deal_id":3008,"description":"","facility_name":"Magbass sugar company","level_of_accuracy":"COORDINATES"}},{"type":"Feature","geometry":{"crs":{"type":"name","properties":{"name":"EPSG:4326"}},"type":"Point","coordinates":[33.24071,-19.38322]},"properties":{"id":"IG25qP-6","name":"Chimoio, Mozambique","type":"point","region":"Africa","comment":"Macs-In-Moz is located near Sussundenga, 40 kilometers from the city of Chimoio, capital of the province of Manica.\nShapefile Polygon from Google Earth Pro","country":"Mozambique","deal_id":3023,"description":"","facility_name":"","level_of_accuracy":"COORDINATES"}},{"type":"Feature","geometry":{"crs":{"type":"name","properties":{"name":"EPSG:4326"}},"type":"Point","coordinates":[35.715,-17.98]},"properties":{"id":"zZrLnT4o","name":"Mopeia, Mozambique","type":"point","region":"Africa","comment":"Zambezia province","country":"Mozambique","deal_id":3030,"description":"","facility_name":"","level_of_accuracy":"ADMINISTRATIVE_REGION"}},{"type":"Feature","geometry":{"crs":{"type":"name","properties":{"name":"EPSG:4326"}},"type":"Point","coordinates":[36.12602,-13.47592]},"properties":{"id":"DMOzhu7o","name":"Malanga, Mozambique","type":"point","region":"Africa","comment":"Malanga, Majune district , Niassa Province \n","country":"Mozambique","deal_id":3031,"description":"","facility_name":"","level_of_accuracy":"EXACT_LOCATION"}},{"type":"Feature","geometry":{"crs":{"type":"name","properties":{"name":"EPSG:4326"}},"type":"Point","coordinates":[35.07459,-17.44173]},"properties":{"id":"mTT0fFEi","name":"Mutarara, Mozambique","type":"point","region":"Africa","comment":"Located in Mutarara, Tete","country":"Mozambique","deal_id":3032,"description":"","facility_name":"","level_of_accuracy":"ADMINISTRATIVE_REGION"}},{"type":"Feature","geometry":{"crs":{"type":"name","properties":{"name":"EPSG:4326"}},"type":"Point","coordinates":[37.09758,-15.48207]},"properties":{"id":"0F-xAhqZ","name":"Gurue, Mozambique","type":"point","region":"Africa","comment":"Cha de Magoma is located in the northern part of Mozambique. It is close to the town of Gúruè and not far from the Malawi border.","country":"Mozambique","deal_id":3037,"description":"Situated at an altitude of 1000m above sea level, the plantation runs three modern tea producing factories.","facility_name":"","level_of_accuracy":"EXACT_LOCATION"}},{"type":"Feature","geometry":{"crs":{"type":"name","properties":{"name":"EPSG:4326"}},"type":"Point","coordinates":[37.09923,-15.48021]},"properties":{"id":"xLr5wHrq","name":"Gurue, Mozambique","type":"point","region":"Africa","comment":"Cha de Magoma is located in the northern part of Mozambique. It is close to the town of Gúruè and not far from the Malawi border.","country":"Mozambique","deal_id":3038,"description":"","facility_name":"","level_of_accuracy":"EXACT_LOCATION"}},{"type":"Feature","geometry":{"crs":{"type":"name","properties":{"name":"EPSG:4326"}},"type":"Point","coordinates":[36.80618,-15.17646]},"properties":{"id":"iUxfqaWO","name":"Lioma, Mozambique","type":"point","region":"Africa","comment":"Located in Lioma,  Gurue, Zambezia. Niuce-Tetete","country":"Mozambique","deal_id":3041,"description":"","facility_name":"","level_of_accuracy":"ADMINISTRATIVE_REGION"}},